stop_id,stop_name,stop_lat,stop_lon
1187,'s-Hertogenbosch,51.69054,5.293723
63,'s-Hertogenbosch,51.69054,5.293723
879,'s-Hertogenbosch,51.69054,5.293723
1056,Aachen Hbf,50.7678,6.091499
1149,Aachen Hbf,50.7678,6.091499
945,Aachen Hbf,50.7678,6.091499
909,Aachen Süd(Gr),50.731915,6.04541
1305,Aalen Hbf,48.841015,10.096271
210,Aalen Hbf,48.841015,10.096271
1044,Aarhus,56.150074,10.204997
1318,Aarhus,56.150074,10.204997
329,Alfeld(Leine),51.98142,9.817779
796,Alfeld(Leine),51.98142,9.817779
280,Almelo,52.357285,6.654811
449,Almelo,52.357285,6.654811
137,Altenbeken,51.766434,8.943319
196,Altenbeken,51.766434,8.943319
1250,Amersfoort Centraal,52.153465,5.373909
359,Amersfoort Centraal,52.153465,5.373909
412,Amersfoort Centraal,52.153465,5.373909
462,Amersfoort Centraal,52.153465,5.373909
1162,Amsterdam Centraal,52.37919,4.899431
1197,Amsterdam Centraal,52.37919,4.899431
1259,Amsterdam Centraal,52.37919,4.899431
1271,Amsterdam Centraal,52.37919,4.899431
375,Amsterdam Centraal,52.37919,4.899431
444,Amsterdam Centraal,52.37919,4.899431
611,Amsterdam Centraal,52.37919,4.899431
68,Amsterdam Centraal,52.37919,4.899431
848,Amsterdam Centraal,52.37919,4.899431
860,Amsterdam Centraal,52.37919,4.899431
869,Amsterdam Centraal,52.37919,4.899431
894,Amsterdam Centraal,52.37919,4.899431
1372,Amstetten NÖ,48.121605,14.878112
845,Amstetten NÖ,48.121605,14.878112
1123,Andernach,50.434544,7.404839
134,Andernach,50.434544,7.404839
864,Andernach,50.434544,7.404839
1326,Angermünde,53.01522,13.996361
62,Angermünde,53.01522,13.996361
1164,Anklam,53.856102,13.701827
165,Anklam,53.856102,13.701827
1169,Ansbach,49.29803,10.578239
408,Ansbach,49.29803,10.578239
445,Ansbach,49.29803,10.578239
759,Ansbach,49.29803,10.578239
923,Ansbach,49.29803,10.578239
1090,Apeldoorn,52.20943,5.967491
913,Apeldoorn,52.20943,5.967491
958,Apeldoorn,52.20943,5.967491
189,Apolda,51.03094,11.526136
199,Apolda,51.03094,11.526136
431,Arnhem Centraal,51.98478,5.901003
644,Arnhem Centraal,51.98478,5.901003
652,Arnhem Centraal,51.98478,5.901003
780,Arnhem Centraal,51.98478,5.901003
1006,Arth-Goldau,47.049046,8.549446
684,Arth-Goldau,47.049046,8.549446
1170,Aschaffenburg Hbf,49.980556,9.143697
85,Aschaffenburg Hbf,49.980556,9.143697
1210,Augsburg Hbf,48.36544,10.88557
1256,Augsburg Hbf,48.36544,10.88557
1390,Augsburg Hbf,48.36544,10.88557
285,Augsburg Hbf,48.36544,10.88557
371,Augsburg Hbf,48.36544,10.88557
505,Augsburg Hbf,48.36544,10.88557
657,Augsburg Hbf,48.36544,10.88557
964,Augsburg Hbf,48.36544,10.88557
106,Augustfehn,53.22089,7.759659
959,Augustfehn,53.22089,7.759659
914,Aulendorf,47.953053,9.644046
1290,Bad Bentheim,52.30985,7.158539
469,Bad Bentheim,52.30985,7.158539
929,Bad Bentheim(Gr),52.3091,7.04016
1107,Bad Bevensen,53.078247,10.574141
625,Bad Bevensen,53.078247,10.574141
157,Bad Endorf,47.905067,12.301558
905,Bad Endorf,47.905067,12.301558
435,Bad Gastein,47.111744,13.132456
1139,Bad Hersfeld,50.869633,9.716182
885,Bad Hersfeld,50.869633,9.716182
1205,Bad Hofgastein,47.195713,13.100939
717,Bad Hofgastein,47.195713,13.100939
1028,Bad Kleinen,53.766975,11.466925
615,Bad Kleinen,53.766975,11.466925
340,Bad Krozingen,47.91972,7.697632
891,Bad Krozingen,47.91972,7.697632
1214,Bad Oeynhausen,52.2054,8.796523
1283,Bad Oeynhausen,52.2054,8.796523
211,Bad Schandau,50.91929,14.137538
529,Bad Schandau,50.91929,14.137538
630,Bad Zwischenahn,53.18255,8.003123
1212,Baden-Baden,48.790325,8.190831
438,Baden-Baden,48.790325,8.190831
241,Bamberg,49.90076,10.899489
547,Bamberg,49.90076,10.899489
207,Basel Bad Bf,47.567287,7.607805
770,Basel Bad Bf,47.567287,7.607805
941,Basel Bad Bf,47.567287,7.607805
977,Basel Bad Bf,47.567287,7.607805
1147,Basel SBB,47.547405,7.589551
1219,Basel SBB,47.547405,7.589551
1260,Basel SBB,47.547405,7.589551
1328,Basel SBB,47.547405,7.589551
28,Basel SBB,47.547405,7.589551
373,Basel SBB,47.547405,7.589551
409,Basel SBB,47.547405,7.589551
41,Basel SBB,47.547405,7.589551
464,Basel SBB,47.547405,7.589551
584,Basel SBB,47.547405,7.589551
75,Basel SBB,47.547405,7.589551
1329,Bebra,50.969566,9.797788
481,Bebra,50.969566,9.797788
775,Bebra,50.969566,9.797788
1340,Bellinzona,46.19543,9.029519
172,Bensheim,49.681328,8.616717
73,Bensheim,49.681328,8.616717
1097,Bergen auf Rügen,54.4205,13.417821
1396,Bergen auf Rügen,54.4205,13.417821
1215,Berlin Gesundbrunnen,52.54896,13.388513
1249,Berlin Gesundbrunnen,52.54896,13.388513
18,Berlin Gesundbrunnen,52.54896,13.388513
219,Berlin Gesundbrunnen,52.54896,13.388513
38,Berlin Gesundbrunnen,52.54896,13.388513
827,Berlin Gesundbrunnen,52.54896,13.388513
1398,Berlin Hbf,52.525593,13.369545
3,Berlin Hbf,52.525593,13.369545
472,Berlin Hbf,52.525593,13.369545
620,Berlin Hbf,52.525593,13.369545
881,Berlin Hbf,52.525593,13.369545
954,Berlin Hbf,52.525593,13.369545
1021,Berlin Hbf (tief),52.525593,13.369545
126,Berlin Hbf (tief),52.525593,13.369545
1378,Berlin Hbf (tief),52.525593,13.369545
15,Berlin Hbf (tief),52.525593,13.369545
201,Berlin Hbf (tief),52.525593,13.369545
388,Berlin Hbf (tief),52.525593,13.369545
608,Berlin Hbf (tief),52.525593,13.369545
733,Berlin Hbf (tief),52.525593,13.369545
774,Berlin Hbf (tief),52.525593,13.369545
122,Berlin Ostbahnhof,52.510487,13.434681
1301,Berlin Ostbahnhof,52.510487,13.434681
1375,Berlin Ostbahnhof,52.510487,13.434681
221,Berlin Ostbahnhof,52.510487,13.434681
47,Berlin Ostbahnhof,52.510487,13.434681
779,Berlin Ostbahnhof,52.510487,13.434681
969,Berlin Ostbahnhof,52.510487,13.434681
111,Berlin Ostkreuz,52.503036,13.469105
220,Berlin Ostkreuz,52.503036,13.469105
1143,Berlin Südkreuz,52.475048,13.365319
1270,Berlin Südkreuz,52.475048,13.365319
19,Berlin Südkreuz,52.475048,13.365319
209,Berlin Südkreuz,52.475048,13.365319
226,Berlin Südkreuz,52.475048,13.365319
339,Berlin Südkreuz,52.475048,13.365319
852,Berlin Südkreuz,52.475048,13.365319
160,Berlin Wannsee,52.42097,13.179528
379,Berlin Wannsee,52.42097,13.179528
51,Berlin Zoologischer Garten,52.50728,13.331992
718,Berlin Zoologischer Garten,52.50728,13.331992
1161,Berlin-Charlottenburg,52.50421,13.30233
1294,Berlin-Charlottenburg,52.50421,13.30233
1023,Berlin-Spandau,52.53465,13.196898
1132,Berlin-Spandau,52.53465,13.196898
1134,Berlin-Spandau,52.53465,13.196898
564,Berlin-Spandau,52.53465,13.196898
674,Berlin-Spandau,52.53465,13.196898
849,Berlin-Spandau,52.53465,13.196898
332,Bern,46.948833,7.439131
660,Bern,46.948833,7.439131
668,Bern,46.948833,7.439131
938,Bern,46.948833,7.439131
350,Bernau(b Berlin),52.675568,13.592641
801,Bernau(b Berlin),52.675568,13.592641
930,Biberach(Riß),48.101845,9.793127
1198,Bielefeld Hbf,52.029263,8.532722
1357,Bielefeld Hbf,52.029263,8.532722
669,Bielefeld Hbf,52.029263,8.532722
1128,Bingen(Rhein) Hbf,49.968727,7.884263
899,Bingen(Rhein) Hbf,49.968727,7.884263
40,Bischofshofen,47.41786,13.219888
952,Bischofshofen,47.41786,13.219888
1007,Bitterfeld,51.62286,12.31685
353,Bitterfeld,51.62286,12.31685
52,Bitterfeld,51.62286,12.31685
696,Bitterfeld,51.62286,12.31685
705,Bitterfeld,51.62286,12.31685
1080,Bludenz,47.154724,9.814564
721,Bochnia,49.9773,20.430775
1207,Bochum Hbf,51.478607,7.223275
1334,Bochum Hbf,51.478607,7.223275
1354,Bochum Hbf,51.478607,7.223275
164,Bochum Hbf,51.478607,7.223275
689,Bochum Hbf,51.478607,7.223275
1338,Bohumin,49.90073,18.359444
742,Bohumin(Gr),49.916576,18.322226
330,Bologna Centrale,44.50614,11.343411
430,Bolzano/Bozen,46.496376,11.358791
120,Bondorf(b Herrenberg),48.523552,8.827662
479,Bondorf(b Herrenberg),48.523552,8.827662
1339,Bonn Hbf,50.73201,7.097136
512,Bonn Hbf,50.73201,7.097136
737,Bonn Hbf,50.73201,7.097136
1100,Bonn-Bad Godesberg,50.683926,7.159555
243,Bonn-Beuel,50.738476,7.127657
426,Bonn-Beuel,50.738476,7.127657
944,Bonn-Beuel,50.738476,7.127657
264,Boppard Hbf,50.231415,7.586102
543,Boppard Hbf,50.231415,7.586102
415,Borovnica,45.921318,14.367972
1030,Brandenburg Hbf,52.400555,12.566138
252,Brandenburg Hbf,52.400555,12.566138
42,Brandenburg Hbf,52.400555,12.566138
541,Bratislava hl.st.,48.15891,17.106466
1081,Braunschweig Hbf,52.252216,10.540295
31,Braunschweig Hbf,52.252216,10.540295
760,Breclav,48.7539,16.893236
1067,Breclav(Gr),48.71255,16.868402
1014,Bregenz,47.503002,9.739627
1209,Bregenz,47.503002,9.739627
677,Bregenz,47.503002,9.739627
337,Bremen Hbf,53.08348,8.813834
440,Bremen Hbf,53.08348,8.813834
517,Bremen Hbf,53.08348,8.813834
667,Bremen Hbf,53.08348,8.813834
8,Bremen Hbf,53.08348,8.813834
810,Bremen Hbf,53.08348,8.813834
853,Bremen Hbf,53.08348,8.813834
911,Bremen Hbf,53.08348,8.813834
943,Bremen Hbf,53.08348,8.813834
238,Brennero/Brenner,47.002342,11.505426
356,Bressanone/Brixen,46.709896,11.649764
156,Brig,46.319424,7.988095
554,Brno hl.n.,49.19054,16.612774
1078,Bruchsal,49.124622,8.589649
14,Bruchsal,49.124622,8.589649
968,Bruchsal,49.124622,8.589649
308,Bruck/Mur,47.41383,15.279433
446,Bruck/Mur,47.41383,15.279433
753,Brugg AG,47.48086,8.208845
1137,Bruxelles Midi,50.835377,4.335694
1196,Bruxelles Midi,50.835377,4.335694
1367,Bruxelles Midi,50.835377,4.335694
141,Bruxelles Midi,50.835377,4.335694
150,Bruxelles Midi,50.835377,4.335694
568,Bruxelles Midi,50.835377,4.335694
782,Bruxelles Midi,50.835377,4.335694
1237,Bruxelles-Nord,50.860237,4.361454
563,Bruxelles-Nord,50.860237,4.361454
870,Bruxelles-Nord,50.860237,4.361454
537,Brzeg,50.85297,17.471178
559,Brzesko Okocim,49.986397,20.6103
1035,Buchloe,48.033722,10.716217
1320,Buchloe,48.033722,10.716217
358,Buchloe,48.033722,10.716217
367,Budapest-Keleti,47.50038,19.085072
269,Budapest-Nyugati,47.510708,19.057467
1310,Bydgoszcz Glowna,53.135113,17.991636
1350,Böblingen,48.68776,9.004128
906,Böblingen,48.68776,9.004128
372,Bünde(Westf),52.202076,8.573876
485,Bünde(Westf),52.202076,8.573876
831,Bützow,53.837112,11.998194
975,Bützow,53.837112,11.998194
1017,Celle,52.620457,10.062468
1116,Celle,52.620457,10.062468
555,Celle,52.620457,10.062468
670,Celle,52.620457,10.062468
342,Chalupki,49.925476,18.311562
729,Chiasso,45.83217,9.03145
1400,Chur,46.853085,9.528938
935,Chur,46.853085,9.528938
1073,Coburg,50.262928,10.957328
381,Coburg,50.262928,10.957328
283,Como S. Giovanni,45.80897,9.072714
1062,Cottbus Hbf,51.750957,14.324162
1240,Cottbus Hbf,51.750957,14.324162
217,Cottbus Hbf,51.750957,14.324162
600,Crailsheim,49.13787,10.064326
839,Crailsheim,49.13787,10.064326
392,Darmstadt Hbf,49.8725,8.629636
423,Darmstadt Hbf,49.8725,8.629636
741,Darmstadt Hbf,49.8725,8.629636
76,Darmstadt Hbf,49.8725,8.629636
830,Darmstadt Hbf,49.8725,8.629636
957,Debica,50.054417,21.405565
1082,Decin hl.n.,50.773415,14.201247
1274,Delmenhorst,53.05279,8.629758
649,Delmenhorst,53.05279,8.629758
136,Dessau Hbf,51.839867,12.234945
212,Dessau Hbf,51.839867,12.234945
1264,Deventer,52.257435,6.160506
365,Deventer,52.257435,6.160506
64,Deventer,52.257435,6.160506
1268,Diepholz,52.60477,8.380334
549,Diepholz,52.60477,8.380334
103,Doberlug-Kirchhain,51.620575,13.564241
986,Doberlug-Kirchhain,51.620575,13.564241
788,Dobova,45.89839,15.655178
1027,Dobova(Gr),45.890633,15.680238
401,Domodossola,46.11529,8.296239
1317,Donauwörth,48.714027,10.771443
386,Donauwörth,48.714027,10.771443
360,Dorfgastein,47.23867,13.103062
556,Dorfgastein,47.23867,13.103062
682,Dornbirn,47.41769,9.738808
823,Dornbirn,47.41769,9.738808
253,Dortmund Hbf,51.517895,7.45929
303,Dortmund Hbf,51.517895,7.45929
36,Dortmund Hbf,51.517895,7.45929
654,Dortmund Hbf,51.517895,7.45929
726,Dortmund Hbf,51.517895,7.45929
982,Dortmund Hbf,51.517895,7.45929
988,Dortmund Hbf,51.517895,7.45929
1117,Dresden Hbf,51.04056,13.732035
1206,Dresden Hbf,51.04056,13.732035
514,Dresden Hbf,51.04056,13.732035
731,Dresden-Neustadt,51.0659,13.740701
736,Dresden-Neustadt,51.0659,13.740701
871,Dresden-Neustadt,51.0659,13.740701
965,Dresden-Neustadt,51.0659,13.740701
286,Duisburg Hbf,51.429787,6.775903
341,Duisburg Hbf,51.429787,6.775903
53,Duisburg Hbf,51.429787,6.775903
595,Duisburg Hbf,51.429787,6.775903
824,Duisburg Hbf,51.429787,6.775903
828,Duisburg Hbf,51.429787,6.775903
918,Duisburg Hbf,51.429787,6.775903
921,Duisburg Hbf,51.429787,6.775903
145,Düren,50.809517,6.482451
777,Düren,50.809517,6.482451
173,Düsseldorf Flughafen,51.292007,6.786836
425,Düsseldorf Flughafen,51.292007,6.786836
826,Düsseldorf Flughafen,51.292007,6.786836
1138,Düsseldorf Hbf,51.219963,6.794319
1192,Düsseldorf Hbf,51.219963,6.794319
369,Düsseldorf Hbf,51.219963,6.794319
414,Düsseldorf Hbf,51.219963,6.794319
473,Düsseldorf Hbf,51.219963,6.794319
569,Düsseldorf Hbf,51.219963,6.794319
79,Düsseldorf Hbf,51.219963,6.794319
861,Düsseldorf Hbf,51.219963,6.794319
108,Eberswalde Hbf,52.834023,13.797062
43,Eberswalde Hbf,52.834023,13.797062
1150,Eisenach,50.97692,10.331986
121,Eisenach,50.97692,10.331986
1075,Ellwangen,48.964123,10.129681
24,Elsterwerda,51.45968,13.516428
640,Elsterwerda,51.45968,13.516428
820,Elsterwerda,51.45968,13.516428
290,Elze(Han),52.120148,9.746894
503,Elze(Han),52.120148,9.746894
1278,Emden Außenhafen,53.344467,7.186179
1313,Emden Hbf,53.369038,7.195176
25,Emden Hbf,53.369038,7.195176
629,Emden Hbf,53.369038,7.195176
939,Emden Hbf,53.369038,7.195176
619,Emmerich(Gr),51.901196,6.137652
208,Engen,47.856346,8.772786
74,Engen,47.856346,8.772786
1034,Erfurt Hbf,50.97255,11.038499
1239,Erfurt Hbf,50.97255,11.038499
127,Erfurt Hbf,50.97255,11.038499
382,Erfurt Hbf,50.97255,11.038499
533,Erfurt Hbf,50.97255,11.038499
1394,Ergenzingen,48.489532,8.809857
185,Ergenzingen,48.489532,8.809857
1371,Erlangen,49.59583,11.001638
950,Erlangen,49.59583,11.001638
1088,Essen Hbf,51.451355,7.014793
1103,Essen Hbf,51.451355,7.014793
192,Essen Hbf,51.451355,7.014793
437,Essen Hbf,51.451355,7.014793
887,Essen Hbf,51.451355,7.014793
557,Eutingen im Gäu,48.479954,8.782236
832,Eutingen im Gäu,48.479954,8.782236
421,Faak am See,46.56437,13.913006
808,Fehmarn-Burg,54.443592,11.18898
338,Feldkirch,47.24098,9.604102
671,Feldkirch,47.24098,9.604102
244,Fischen,47.456593,10.271717
599,Flensburg,54.77404,9.436526
1323,Flensburg(Gr),54.814842,9.36324
457,Forbach(F),49.189217,6.900258
1039,Forbach(fr),49.21409,6.944314
232,Fortezza/Franzensfeste,46.78872,11.610083
310,Frankfurt(M) Flughafen Fernbf,50.053165,8.570185
394,Frankfurt(M) Flughafen Fernbf,50.053165,8.570185
490,Frankfurt(M) Flughafen Fernbf,50.053165,8.570185
638,Frankfurt(M) Flughafen Fernbf,50.053165,8.570185
700,Frankfurt(M) Flughafen Fernbf,50.053165,8.570185
1050,Frankfurt(Main)Hbf,50.107143,8.663789
1054,Frankfurt(Main)Hbf,50.107143,8.663789
1098,Frankfurt(Main)Hbf,50.107143,8.663789
1105,Frankfurt(Main)Hbf,50.107143,8.663789
1113,Frankfurt(Main)Hbf,50.107143,8.663789
1127,Frankfurt(Main)Hbf,50.107143,8.663789
12,Frankfurt(Main)Hbf,50.107143,8.663789
1228,Frankfurt(Main)Hbf,50.107143,8.663789
1336,Frankfurt(Main)Hbf,50.107143,8.663789
170,Frankfurt(Main)Hbf,50.107143,8.663789
26,Frankfurt(Main)Hbf,50.107143,8.663789
260,Frankfurt(Main)Hbf,50.107143,8.663789
268,Frankfurt(Main)Hbf,50.107143,8.663789
322,Frankfurt(Main)Hbf,50.107143,8.663789
406,Frankfurt(Main)Hbf,50.107143,8.663789
792,Frankfurt(Main)Hbf,50.107143,8.663789
793,Frankfurt(Main)Hbf,50.107143,8.663789
84,Frankfurt(Main)Hbf,50.107143,8.663789
884,Frankfurt(Main)Hbf,50.107143,8.663789
919,Frankfurt(Main)Hbf,50.107143,8.663789
998,Frankfurt(Main)Hbf,50.107143,8.663789
558,Frankfurt(Main)Süd,50.099365,8.686457
617,Frankfurt(Main)Süd,50.099365,8.686457
1262,Frankfurt(Main)West,50.118862,8.639335
149,Frankfurt(Main)West,50.118862,8.639335
587,Frankfurt(Oder),52.336414,14.546496
643,Frankfurt(Oder),52.336414,14.546496
995,Frankfurt(Oder),52.336414,14.546496
49,Frankfurt(Oder)(Gr),52.321175,14.576403
795,Frankfurt-Niederrad,50.081284,8.637075
1397,Fredericia st,55.56809,9.738813
573,Fredericia st,55.56809,9.738813
735,Fredericia st,55.56809,9.738813
1059,Freiburg(Breisgau) Hbf,47.997696,7.84117
1388,Freiburg(Breisgau) Hbf,47.997696,7.84117
728,Freiburg(Breisgau) Hbf,47.997696,7.84117
1387,Freilassing,47.836918,12.977193
374,Freilassing,47.836918,12.977193
420,Freilassing,47.836918,12.977193
877,Freilassing,47.836918,12.977193
416,Friedberg(Hess),50.332607,8.762056
933,Friedberg(Hess),50.332607,8.762056
934,Friedrichshafen Stadt,47.653225,9.4739
112,Fulda,50.55472,9.683977
1399,Fulda,50.55472,9.683977
225,Fulda,50.55472,9.683977
713,Fulda,50.55472,9.683977
1308,Fürth(Bay)Hbf,49.469707,10.989988
478,Fürth(Bay)Hbf,49.469707,10.989988
377,Garmisch-Partenkirchen,47.49145,11.097013
924,Garmisch-Partenkirchen,47.49145,11.097013
1159,Gdansk Glowny,54.35552,18.643803
78,Gdansk Oliwa,54.409893,18.571741
1402,Gdansk Wrzeszcz,54.38186,18.605434
722,Gdynia Glowna,54.52084,18.529556
805,Geislingen(Steige),48.619358,9.841941
994,Geislingen(Steige),48.619358,9.841941
1015,Gelsenkirchen Hbf,51.5049,7.102455
1304,Gelsenkirchen Hbf,51.5049,7.102455
154,Gelsenkirchen Hbf,51.5049,7.102455
266,Gelsenkirchen Hbf,51.5049,7.102455
510,Gelsenkirchen Hbf,51.5049,7.102455
621,Gelsenkirchen Hbf,51.5049,7.102455
176,Gera Hbf,50.883423,12.077092
345,Gera Hbf,50.883423,12.077092
940,Gera Hbf,50.883423,12.077092
1211,Gießen,50.57906,8.661462
513,Gießen,50.57906,8.661462
1279,Gliwice,50.301105,18.677158
314,Glogow,51.668957,16.079712
1376,Gniezno,52.52965,17.602184
470,Golling-Abtenau,47.600574,13.164086
955,Golling-Abtenau,47.600574,13.164086
1091,Gotha,50.93907,10.712568
1355,Gotha,50.93907,10.712568
829,Gotha,50.93907,10.712568
561,Graz Hbf,47.072296,15.416437
60,Graz Hbf,47.072296,15.416437
776,Graz Hbf,47.072296,15.416437
1200,Greifswald,54.092922,13.370262
276,Greifswald,54.092922,13.370262
655,Györ,47.68198,17.63479
181,Gäufelden,48.55966,8.850308
880,Gäufelden,48.55966,8.850308
21,Göppingen,48.700027,9.651969
781,Göppingen,48.700027,9.651969
841,Göppingen,48.700027,9.651969
1068,Göttingen,51.536816,9.926072
1282,Göttingen,51.536816,9.926072
155,Göttingen,51.536816,9.926072
197,Göttingen,51.536816,9.926072
284,Göttingen,51.536816,9.926072
447,Göttingen,51.536816,9.926072
578,Göttingen,51.536816,9.926072
797,Göttingen,51.536816,9.926072
504,Günzburg,48.460564,10.279262
910,Günzburg,48.460564,10.279262
1223,Gütersloh Hbf,51.90694,8.385071
1288,Gütersloh Hbf,51.90694,8.385071
951,Gütersloh Hbf,51.90694,8.385071
279,Haffkrug,54.054188,10.742682
1020,Hagen Hbf,51.362747,7.460249
1226,Hagen Hbf,51.362747,7.460249
427,Hagen Hbf,51.362747,7.460249
523,Hagen Hbf,51.362747,7.460249
642,Hagen Hbf,51.362747,7.460249
693,Hagen Hbf,51.362747,7.460249
749,Hagen Hbf,51.362747,7.460249
844,Hagen Hbf,51.362747,7.460249
875,Hagen Hbf,51.362747,7.460249
931,Hagen Hbf,51.362747,7.460249
1022,Halle(Saale)Hbf,51.47751,11.987085
1291,Halle(Saale)Hbf,51.47751,11.987085
396,Halle(Saale)Hbf,51.47751,11.987085
571,Halle(Saale)Hbf,51.47751,11.987085
1245,Hallein,47.68517,13.099434
1348,Hallein,47.68517,13.099434
1003,Hamburg Dammtor,53.560753,9.989566
1155,Hamburg Dammtor,53.560753,9.989566
391,Hamburg Dammtor,53.560753,9.989566
109,Hamburg Hbf,53.552734,10.006909
1366,Hamburg Hbf,53.552734,10.006909
16,Hamburg Hbf,53.552734,10.006909
166,Hamburg Hbf,53.552734,10.006909
257,Hamburg Hbf,53.552734,10.006909
307,Hamburg Hbf,53.552734,10.006909
312,Hamburg Hbf,53.552734,10.006909
361,Hamburg Hbf,53.552734,10.006909
432,Hamburg Hbf,53.552734,10.006909
433,Hamburg Hbf,53.552734,10.006909
525,Hamburg Hbf,53.552734,10.006909
711,Hamburg Hbf,53.552734,10.006909
734,Hamburg Hbf,53.552734,10.006909
961,Hamburg Hbf,53.552734,10.006909
105,Hamburg-Altona,53.552696,9.935175
1297,Hamburg-Altona,53.552696,9.935175
1322,Hamburg-Altona,53.552696,9.935175
138,Hamburg-Altona,53.552696,9.935175
144,Hamburg-Altona,53.552696,9.935175
177,Hamburg-Altona,53.552696,9.935175
482,Hamburg-Altona,53.552696,9.935175
738,Hamburg-Altona,53.552696,9.935175
739,Hamburg-Altona,53.552696,9.935175
11,Hamburg-Harburg,53.45591,9.991701
13,Hamburg-Harburg,53.45591,9.991701
234,Hamburg-Harburg,53.45591,9.991701
422,Hamburg-Harburg,53.45591,9.991701
591,Hamburg-Harburg,53.45591,9.991701
821,Hamburg-Harburg,53.45591,9.991701
118,Hamm(Westf)Hbf,51.678078,7.807821
1343,Hamm(Westf)Hbf,51.678078,7.807821
270,Hamm(Westf)Hbf,51.678078,7.807821
289,Hamm(Westf)Hbf,51.678078,7.807821
720,Hamm(Westf)Hbf,51.678078,7.807821
746,Hamm(Westf)Hbf,51.678078,7.807821
785,Hamm(Westf)Hbf,51.678078,7.807821
1277,Hanau Hbf,50.120953,8.929
200,Hanau Hbf,50.120953,8.929
387,Hanau Hbf,50.120953,8.929
565,Hanau Hbf,50.120953,8.929
690,Hanau Hbf,50.120953,8.929
1001,Hannover Hbf,52.376762,9.741021
1146,Hannover Hbf,52.376762,9.741021
311,Hannover Hbf,52.376762,9.741021
393,Hannover Hbf,52.376762,9.741021
5,Hannover Hbf,52.376762,9.741021
597,Hannover Hbf,52.376762,9.741021
675,Hannover Hbf,52.376762,9.741021
685,Hannover Hbf,52.376762,9.741021
87,Hannover Hbf,52.376762,9.741021
979,Hannover Hbf,52.376762,9.741021
1148,Hannover Messe/Laatzen,52.3169,9.792863
186,Hannover-Linden/Fischerhof,52.352634,9.723114
602,Hedensted st,55.767998,9.6995
946,Hegyeshalom,47.913506,17.14702
524,Hegyeshalom(Gr),47.93826,17.095844
499,Heide(Holst),54.19356,9.101029
639,Heide(Holst),54.19356,9.101029
368,Heidelberg Hbf,49.40357,8.675442
424,Heidelberg Hbf,49.40357,8.675442
484,Heidelberg Hbf,49.40357,8.675442
492,Heidelberg Hbf,49.40357,8.675442
603,Heidelberg Hbf,49.40357,8.675442
768,Heidelberg Hbf,49.40357,8.675442
900,Heidelberg Hbf,49.40357,8.675442
354,Helmstedt,52.222088,11.010553
634,Helmstedt,52.222088,11.010553
1232,Hengelo,52.261852,6.793726
294,Hengelo,52.261852,6.793726
976,Hengelo,52.261852,6.793726
641,Heppenheim(Bergstr),49.641552,8.633379
93,Heppenheim(Bergstr),49.641552,8.633379
1172,Herford,52.11961,8.663643
703,Herford,52.11961,8.663643
835,Herford,52.11961,8.663643
1386,Hermsdorf-Klosterlausnitz,50.903778,11.858626
402,Hermsdorf-Klosterlausnitz,50.903778,11.858626
453,Herrenberg,48.59399,8.862662
804,Herrenberg,48.59399,8.862662
1171,Hildesheim Gbf,52.157387,9.942379
1287,Hildesheim Hbf,52.160625,9.953497
321,Hildesheim Hbf,52.160625,9.953497
265,Hilversum,52.22667,5.181399
65,Hilversum,52.22667,5.181399
610,Homburg(Saar)Hbf,49.328083,7.337035
763,Homburg(Saar)Hbf,49.328083,7.337035
351,Horb,48.44147,8.688982
80,Horb,48.44147,8.688982
560,Horsens st,55.86279,9.8355
812,Horsens st,55.86279,9.8355
498,Hude,53.10943,8.460956
551,Hude,53.10943,8.460956
287,Husum,54.47227,9.055026
922,Husum,54.47227,9.055026
1220,Hünfeld,50.67327,9.762453
526,Hünfeld,50.67327,9.762453
772,Ibbenbüren,52.276867,7.721486
1126,Ilirska Bistrica,45.569275,14.236037
281,Immenstadt,47.559204,10.213999
81,Immenstadt,47.559204,10.213999
747,Imst-Pitztal,47.219074,10.76167
1368,Ingolstadt Hbf,48.74454,11.437337
46,Ingolstadt Hbf,48.74454,11.437337
1047,Innsbruck Hbf,47.26333,11.40051
295,Innsbruck Hbf,47.26333,11.40051
413,Innsbruck Hbf,47.26333,11.40051
579,Innsbruck Hbf,47.26333,11.40051
850,Innsbruck Hbf,47.26333,11.40051
67,Inowroclaw,52.804947,18.24406
159,Interlaken Ost,46.6905,7.869
1183,Interlaken West,46.68295,7.851366
1265,Iselle transito,46.27205,8.097801
57,Itzehoe,53.923874,9.510287
58,Itzehoe,53.923874,9.510287
497,Jaroslaw,50.01067,22.677896
585,Jena Paradies,50.924854,11.587461
613,Jena Paradies,50.924854,11.587461
1356,Jena West,50.923286,11.577848
97,Jena West,50.923286,11.577848
1275,Jena-Göschwitz,50.88394,11.593537
583,Jena-Göschwitz,50.88394,11.593537
1102,Jenbach,47.388447,11.778454
395,Jenbach,47.388447,11.778454
818,Jesenice(Gr),46.48141,14.020333
1261,Jesenice(SL),46.436325,14.054913
1110,Jurdani,45.39309,14.308552
530,Kaiserslautern Hbf,49.43614,7.768716
840,Kaiserslautern Hbf,49.43614,7.768716
1077,Kapfenberg,47.44512,15.292088
1085,Kapfenberg,47.44512,15.292088
1093,Karlsruhe Hbf,48.993515,8.402181
1358,Karlsruhe Hbf,48.993515,8.402181
148,Karlsruhe Hbf,48.993515,8.402181
205,Karlsruhe Hbf,48.993515,8.402181
343,Karlsruhe Hbf,48.993515,8.402181
407,Karlsruhe Hbf,48.993515,8.402181
476,Karlsruhe Hbf,48.993515,8.402181
662,Karlsruhe Hbf,48.993515,8.402181
723,Karlsruhe Hbf,48.993515,8.402181
77,Karlsruhe Hbf,48.993515,8.402181
773,Karlsruhe Hbf,48.993515,8.402181
896,Karlsruhe Hbf,48.993515,8.402181
953,Karlsruhe Hbf,48.993515,8.402181
1046,Karlsruhe-Durlach,49.002327,8.462822
708,Karlsruhe-Durlach,49.002327,8.462822
895,Karlsruhe-Durlach,49.002327,8.462822
1129,Kassel-Wilhelmshöhe,51.313114,9.446898
1189,Kassel-Wilhelmshöhe,51.313114,9.446898
1325,Kassel-Wilhelmshöhe,51.313114,9.446898
1392,Kassel-Wilhelmshöhe,51.313114,9.446898
582,Kassel-Wilhelmshöhe,51.313114,9.446898
745,Kassel-Wilhelmshöhe,51.313114,9.446898
867,Kassel-Wilhelmshöhe,51.313114,9.446898
1299,Katowice,50.257515,19.017164
480,Kaufbeuren,47.87543,10.629496
794,Kaufbeuren,47.87543,10.629496
493,Kehl(Gr),48.575645,7.801118
1373,Kelenföld,47.464355,19.020456
1285,Kempten(Allgäu)Hbf,47.711746,10.31761
366,Kempten(Allgäu)Hbf,47.711746,10.31761
139,Kiel Hbf,54.314983,10.131976
1025,Klagenfurt Hbf,46.615585,14.313569
1045,Koblenz Hbf,50.35093,7.588345
147,Koblenz Hbf,50.35093,7.588345
218,Koblenz Hbf,50.35093,7.588345
452,Koblenz Hbf,50.35093,7.588345
536,Koblenz Hbf,50.35093,7.588345
1026,Koebenhavn H,55.67272,12.564617
1193,Koebenhavn H,55.67272,12.564617
637,Koebenhavn H,55.67272,12.564617
692,Koebenhavn H,55.67272,12.564617
771,Koebenhavn H,55.67272,12.564617
1295,Koebenhavns Lufthavn st,55.629604,12.649382
227,Koebenhavns Lufthavn st,55.629604,12.649382
1337,Koege Nord St.,55.499557,12.173244
889,Koege Nord St.,55.499557,12.173244
1084,Kolding st,55.49084,9.481528
1370,Kolding st,55.49084,9.481528
115,Kolin(CZ),50.025436,15.214279
679,Konin,52.231396,18.253336
859,Konstanz,47.658752,9.177312
113,Korsoer st,55.3572,11.135125
37,Korsoer st,55.3572,11.135125
1181,Krakow Glowny,50.067196,19.947426
1218,Kranj,46.23901,14.348167
1346,Krefeld Hbf,51.325718,6.569885
1365,Krefeld Hbf,51.325718,6.569885
483,Krefeld Hbf,51.325718,6.569885
171,Kreiensen,51.85142,9.967798
315,Kreiensen,51.85142,9.967798
973,Kreiensen,51.85142,9.967798
96,Krsko,45.95624,15.493454
132,Krumpendorf/Wörthersee,46.62633,14.221512
418,Krumpendorf/Wörthersee,46.62633,14.221512
182,Kufstein,47.58308,12.16555
59,Kufstein,47.58308,12.16555
791,Kufstein,47.58308,12.16555
1055,Kutno,52.226963,19.348616
847,Kuty,48.661892,17.047695
153,Kuty(Gr),48.71108,17.000406
100,Köln Hbf,50.94303,6.958729
1061,Köln Hbf,50.94303,6.958729
1064,Köln Hbf,50.94303,6.958729
1095,Köln Hbf,50.94303,6.958729
1167,Köln Hbf,50.94303,6.958729
1213,Köln Hbf,50.94303,6.958729
1266,Köln Hbf,50.94303,6.958729
1314,Köln Hbf,50.94303,6.958729
1327,Köln Hbf,50.94303,6.958729
233,Köln Hbf,50.94303,6.958729
278,Köln Hbf,50.94303,6.958729
323,Köln Hbf,50.94303,6.958729
336,Köln Hbf,50.94303,6.958729
455,Köln Hbf,50.94303,6.958729
539,Köln Hbf,50.94303,6.958729
550,Köln Hbf,50.94303,6.958729
616,Köln Hbf,50.94303,6.958729
646,Köln Hbf,50.94303,6.958729
70,Köln Hbf,50.94303,6.958729
825,Köln Hbf,50.94303,6.958729
834,Köln Hbf,50.94303,6.958729
928,Köln Hbf,50.94303,6.958729
98,Köln Messe/Deutz,50.940872,6.975001
1188,Köln Messe/Deutz Gl.11-12,50.941723,6.974067
1298,Köln Messe/Deutz Gl.11-12,50.941723,6.974067
389,Köln Messe/Deutz Gl.11-12,50.941723,6.974067
301,Köln-Ehrenfeld,50.951534,6.917276
873,Köln-Ehrenfeld,50.951534,6.917276
972,Köln-Ehrenfeld,50.951534,6.917276
1153,Köln/Bonn Flughafen,50.878902,7.119302
346,Köln/Bonn Flughafen,50.878902,7.119302
506,Köln/Bonn Flughafen,50.878902,7.119302
158,Königs Wusterhausen,52.296635,13.631472
1000,Köthen,51.75193,11.989358
1217,Köthen,51.75193,11.989358
665,Köthen,51.75193,11.989358
107,Lahr(Schwarzw),48.340435,7.834734
743,Lahr(Schwarzw),48.340435,7.834734
1393,Lancut,50.08143,22.227507
680,Landeck-Zams,47.148243,10.578392
195,Landquart,46.96744,9.554045
798,Landquart,46.96744,9.554045
1176,Landstuhl,49.416286,7.565931
1151,Langen am Arlberg,47.13172,10.120375
645,Langen am Arlberg,47.13172,10.120375
1269,Langenhagen Mitte,52.440277,9.725427
390,Langenhagen Mitte,52.440277,9.725427
10,Leer(Ostfriesl),53.23165,7.465283
249,Leer(Ostfriesl),53.23165,7.465283
978,Leer(Ostfriesl),53.23165,7.465283
55,Legnica,51.21385,16.168922
1005,Leipzig Hbf,51.34547,12.382064
1029,Leipzig Hbf,51.34547,12.382064
1070,Leipzig Hbf,51.34547,12.382064
1324,Leipzig Hbf,51.34547,12.382064
1333,Leipzig Hbf,51.34547,12.382064
223,Leipzig Hbf,51.34547,12.382064
538,Leipzig Hbf,51.34547,12.382064
576,Leipzig Hbf,51.34547,12.382064
672,Leipzig Hbf,51.34547,12.382064
94,Leipzig Hbf,51.34547,12.382064
334,Leipzig/Halle Flughafen,51.42334,12.223426
352,Leipzig/Halle Flughafen,51.42334,12.223426
1345,Leoben Hbf,47.386604,15.089603
328,Leoben Hbf,47.386604,15.089603
45,Lesce-Bled,46.360416,14.157971
623,Lichtenfels,50.146454,11.059472
1036,Liestal,47.484375,7.731353
851,Liestal,47.484375,7.731353
1065,Liezen,47.56271,14.241886
528,Limburg Süd,50.3825,8.096112
893,Limburg Süd,50.3825,8.096112
34,Lindau-Insel,47.544342,9.680469
1112,Lindau-Reutin,47.552383,9.703292
1141,Lindau-Reutin,47.552383,9.703292
162,Lindau-Reutin,47.552383,9.703292
1089,Lingen(Ems),52.519867,7.321731
1042,Linz Hbf,48.29018,14.292131
1267,Linz Hbf,48.29018,14.292131
1374,Linz Hbf,48.29018,14.292131
17,Linz Hbf,48.29018,14.292131
183,Linz Hbf,48.29018,14.292131
188,Linz Hbf,48.29018,14.292131
1199,Lippstadt,51.67069,8.348785
698,Lippstadt,51.67069,8.348785
22,Liège-Guillemins,50.62436,5.566483
658,Liège-Guillemins,50.62436,5.566483
862,Liège-Guillemins,50.62436,5.566483
890,Liège-Guillemins,50.62436,5.566483
380,Ljubljana,46.05869,14.512937
701,Lubin Gorniczy,51.393955,16.195839
1353,Lubliniec,50.673206,18.690039
814,Ludwigsburg,48.89186,9.18542
937,Ludwigsburg,48.89186,9.18542
246,Ludwigshafen(Rh)Hbf,49.477985,8.433402
1286,Lugano,46.0055,8.946995
1364,Lunderskov st,55.48012,9.303791
302,Lunderskov st,55.48012,9.303791
566,Lunderskov st,55.48012,9.303791
712,Lutherstadt Wittenberg Hbf,51.86781,12.662285
927,Lutherstadt Wittenberg Hbf,51.86781,12.662285
1203,Luzern,47.05018,8.310183
730,Luzern,47.05018,8.310183
436,Lübben(Spreewald),51.939735,13.877182
474,Lübben(Spreewald),51.939735,13.877182
362,Lübbenau(Spreewald),51.862167,13.9609
916,Lübbenau(Spreewald),51.862167,13.9609
1152,Lübeck Hbf,53.867546,10.669821
1380,Lübeck Hbf,53.867546,10.669821
601,Lübeck Hbf,53.867546,10.669821
811,Lübeck Hbf,53.867546,10.669821
596,Lüneburg,53.249657,10.41989
659,Lüneburg,53.249657,10.41989
691,Lüneburg,53.249657,10.41989
980,Lüneburg,53.249657,10.41989
1002,Magdeburg Hbf,52.13035,11.626891
1145,Magdeburg Hbf,52.13035,11.626891
1186,Magdeburg Hbf,52.13035,11.626891
124,Magdeburg Hbf,52.13035,11.626891
305,Magdeburg Hbf,52.13035,11.626891
385,Magdeburg Hbf,52.13035,11.626891
589,Magdeburg Hbf,52.13035,11.626891
1072,Mainz Hbf,50.001118,8.25872
1094,Mainz Hbf,50.001118,8.25872
1142,Mainz Hbf,50.001118,8.25872
410,Mainz Hbf,50.001118,8.25872
88,Mainz Hbf,50.001118,8.25872
983,Mainz Hbf,50.001118,8.25872
178,Mallnitz-Obervellach,46.981213,13.176498
417,Mallnitz-Obervellach,46.981213,13.176498
1241,Mannheim Hbf,49.479355,8.468921
163,Mannheim Hbf,49.479355,8.468921
240,Mannheim Hbf,49.479355,8.468921
403,Mannheim Hbf,49.479355,8.468921
688,Mannheim Hbf,49.479355,8.468921
778,Mannheim Hbf,49.479355,8.468921
1,Marburg(Lahn),50.81927,8.775014
89,Marburg(Lahn),50.81927,8.775014
1254,Marienhafe,53.519238,7.27436
20,Marienhafe,53.519238,7.27436
1083,Memmingen,47.98558,10.186853
135,Memmingen,47.98558,10.186853
230,Meppen,52.696022,7.298015
681,Meppen,52.696022,7.298015
1032,Metzingen(Württ),48.539726,9.290156
175,Metzingen(Württ),48.539726,9.290156
1238,Milano Centrale,45.48714,9.204824
110,Minden(Westf),52.29014,8.934728
1180,Minden(Westf),52.29014,8.934728
1280,Minden(Westf),52.29014,8.934728
1385,Mittenwald,47.44003,11.265705
903,Mittenwald,47.44003,11.265705
1092,Mittenwald(Gr),47.39807,11.267441
1292,Montabaur,50.444836,7.825333
292,Montabaur,50.444836,7.825333
1377,Monza,45.574825,9.273683
956,Mosonmagyarovar,47.850357,17.266424
1109,Murnau,47.682266,11.192628
947,Murnau,47.682266,11.192628
1315,Mönchengladbach Hbf,51.196583,6.446111
1321,Mönchengladbach Hbf,51.196583,6.446111
216,Mönchengladbach Hbf,51.196583,6.446111
631,Mönchengladbach Hbf,51.196583,6.446111
863,Mönchengladbach Hbf,51.196583,6.446111
101,Mühlacker,48.953194,8.846101
133,Mühlacker,48.953194,8.846101
762,Mülheim(Ruhr)Hbf,51.431343,6.88651
842,Mülheim(Ruhr)Hbf,51.431343,6.88651
326,Müllheim(Baden),47.809742,7.599332
500,Müllheim(Baden),47.809742,7.599332
1031,München Hbf,48.140232,11.558335
1079,München Hbf,48.140232,11.558335
1182,München Hbf,48.140232,11.558335
1257,München Hbf,48.140232,11.558335
1272,München Hbf,48.140232,11.558335
254,München Hbf,48.140232,11.558335
520,München Hbf,48.140232,11.558335
548,München Hbf,48.140232,11.558335
553,München Hbf,48.140232,11.558335
593,München Hbf,48.140232,11.558335
606,München Hbf,48.140232,11.558335
676,München Hbf,48.140232,11.558335
920,München Hbf,48.140232,11.558335
926,München Hbf,48.140232,11.558335
963,München Hbf,48.140232,11.558335
996,München Hbf,48.140232,11.558335
1076,München Hbf Gl.27-36,48.14153,11.556708
198,München Hbf Gl.27-36,48.14153,11.556708
262,München Hbf Gl.27-36,48.14153,11.556708
683,München Hbf Gl.27-36,48.14153,11.556708
72,München Hbf Gl.27-36,48.14153,11.556708
458,München Ost,48.12744,11.604971
463,München Ost,48.12744,11.604971
651,München Ost,48.12744,11.604971
997,München Ost,48.12744,11.604971
1124,München-Pasing,48.149853,11.461872
83,München-Pasing,48.149853,11.461872
1122,Münster(Westf)Hbf,51.956566,7.635715
468,Münster(Westf)Hbf,51.956566,7.635715
496,Münster(Westf)Hbf,51.956566,7.635715
971,Münster(Westf)Hbf,51.956566,7.635715
987,Münster(Westf)Hbf,51.956566,7.635715
1403,Mürzzuschlag,47.60795,15.677393
868,Mürzzuschlag,47.60795,15.677393
846,Nagymaros-Visegrad,47.790894,18.9588
1106,Naumburg(Saale)Hbf,51.16307,11.796984
1242,Naumburg(Saale)Hbf,51.16307,11.796984
4,Neu-Ulm,48.39304,10.004823
56,Neu-Ulm,48.39304,10.004823
35,Neumünster,54.075752,9.979816
562,Neumünster,54.075752,9.979816
786,Neumünster,54.075752,9.979816
897,Neumünster,54.075752,9.979816
304,Neuss Hbf,51.20435,6.684527
967,Neuss Hbf,51.20435,6.684527
1058,Neustadt(Weinstr)Hbf,49.349552,8.140757
1066,Neustadt(Weinstr)Hbf,49.349552,8.140757
1069,Neustrelitz Hbf,53.359257,13.074603
161,Neustrelitz Hbf,53.359257,13.074603
1306,Niebüll,54.789604,8.834572
567,Niebüll,54.789604,8.834572
1038,Nienburg(Weser),52.645565,9.217753
23,Nienburg(Weser),52.645565,9.217753
222,Norddeich,53.62158,7.160824
293,Norddeich,53.62158,7.160824
1222,Norddeich Mole,53.624313,7.158806
299,Norden,53.588196,7.218913
508,Norden,53.588196,7.218913
1099,Northeim(Han),51.70314,9.986618
882,Northeim(Han),51.70314,9.986618
627,Nove Zamky,47.995003,18.173956
491,Ny Ellebjerg st,55.65242,12.516317
817,Ny Ellebjerg st,55.65242,12.516317
716,Nyborg st,55.314068,10.802921
803,Nyborg st,55.314068,10.802921
1040,Nürnberg Hbf,49.445618,11.082989
1041,Nürnberg Hbf,49.445618,11.082989
1165,Nürnberg Hbf,49.445618,11.082989
1342,Nürnberg Hbf,49.445618,11.082989
1349,Nürnberg Hbf,49.445618,11.082989
1384,Nürnberg Hbf,49.445618,11.082989
459,Nürnberg Hbf,49.445618,11.082989
647,Nürnberg Hbf,49.445618,11.082989
799,Nürnberg Hbf,49.445618,11.082989
822,Nürnberg Hbf,49.445618,11.082989
1160,Nürtingen,48.628,9.342648
306,Nürtingen,48.628,9.342648
1227,Oberhausen Hbf,51.474876,6.851588
273,Oberhausen Hbf,51.474876,6.851588
727,Oberhausen Hbf,51.474876,6.851588
757,Oberhausen Hbf,51.474876,6.851588
428,Oberndorf(Neckar),48.29567,8.575514
856,Oberndorf(Neckar),48.29567,8.575514
527,Oberstdorf,47.411034,10.278097
535,Oberstdorf,47.411034,10.278097
467,Odense st,55.401775,10.386005
542,Odense st,55.401775,10.386005
838,Odense st,55.401775,10.386005
1303,Offenburg,48.476475,7.946723
274,Offenburg,48.476475,7.946723
460,Offenburg,48.476475,7.946723
577,Offenburg,48.476475,7.946723
622,Olawa,50.930943,17.297184
1131,Oldenburg(Holst),54.283825,10.882838
1351,Oldenburg(Oldb),53.14432,8.222713
245,Oldenburg(Oldb),53.14432,8.222713
443,Oldenburg(Oldb),53.14432,8.222713
960,Oldenburg(Oldb),53.14432,8.222713
990,Oldenburg(Oldb),53.14432,8.222713
248,Olten,47.351936,7.9077
544,Olten,47.351936,7.9077
704,Olten,47.351936,7.9077
754,Olten,47.351936,7.9077
686,Opatija Matulji,45.3647,14.32098
66,Opole Glowne,50.661514,17.925863
129,Oranienburg,52.753654,13.249613
502,Oranienburg,52.753654,13.249613
1004,Osnabrück Hbf,52.27285,8.061781
1244,Osnabrück Hbf,52.27285,8.061781
1335,Osnabrück Hbf,52.27285,8.061781
146,Osnabrück Hbf,52.27285,8.061781
632,Osnabrück Hbf,52.27285,8.061781
974,Ostrava hl.n.,49.852085,18.267262
495,Ostseebad Binz,54.40482,13.600507
907,Ostseebad Binz,54.40482,13.600507
1135,Padborg st,54.82425,9.358803
1362,Padborg st,54.82425,9.358803
411,Padborg st,54.82425,9.358803
1157,Paderborn Hbf,51.71298,8.740505
193,Paderborn Hbf,51.71298,8.740505
239,Padova,45.417824,11.88062
267,Papenburg(Ems),53.089706,7.386708
970,Papenburg(Ems),53.089706,7.386708
317,Pardubice hl.n.,50.03174,15.756211
815,Paris Est,48.876976,2.35912
235,Pasewalk,53.515354,13.988875
837,Pasewalk,53.515354,13.988875
1049,Passau Hbf,48.57363,13.450776
1252,Passau Hbf,48.57363,13.450776
581,Peine,52.318943,10.232145
664,Peine,52.318943,10.232145
1115,Pforzheim Hbf,48.894154,8.703099
515,Pforzheim Hbf,48.894154,8.703099
1037,Pivka,45.675255,14.191376
1379,Plattling,48.779617,12.86394
789,Plattling,48.779617,12.86394
1174,Plochingen,48.71308,9.41081
202,Plochingen,48.71308,9.41081
297,Plochingen,48.71308,9.41081
33,Plochingen,48.71308,9.41081
69,Plochingen,48.71308,9.41081
764,Plochingen,48.71308,9.41081
765,Postojna,45.7731,14.221469
1060,Potsdam Hbf,52.39151,13.066703
325,Potsdam Hbf,52.39151,13.066703
836,Poznan Gl.,52.401993,16.91087
522,Praha hl.n.,50.08306,14.436039
966,Praha-Holesovice,50.110214,14.440013
707,Prenzlau,53.32161,13.866532
872,Prenzlau,53.32161,13.866532
614,Prien a Chiemsee,47.855515,12.346615
888,Prien a Chiemsee,47.855515,12.346615
214,Przemysl Gl.,49.78366,22.776363
90,Przemysl Zasanie,49.79363,22.774115
932,Przeworsk,50.067215,22.503357
1246,Pörtschach am Wörther See,46.6362,14.146231
534,Pörtschach am Wörther See,46.6362,14.146231
816,Raciborz,50.09035,18.226397
349,Radolfzell,47.735874,8.968984
384,Radolfzell,47.735874,8.968984
604,Radolfzell,47.735874,8.968984
231,Radstadt,47.38424,13.467809
1074,Radymno,49.939533,22.829151
1071,Rastatt,48.86048,8.215623
348,Rastatt,48.86048,8.215623
1101,Ravensburg,47.78448,9.6061
1243,Recklinghausen Hbf,51.61636,7.20349
296,Recklinghausen Hbf,51.61636,7.20349
925,Recklinghausen Hbf,51.61636,7.20349
572,Regensburg Hbf,49.011673,12.099617
61,Regensburg Hbf,49.011673,12.099617
1043,Remagen,50.577213,7.229779
258,Remagen,50.577213,7.229779
125,Rendsburg,54.30226,9.671134
448,Rendsburg,54.30226,9.671134
487,Reutlingen Hbf,48.49608,9.209116
740,Reutlingen Hbf,48.49608,9.209116
1296,Rheine,52.2763,7.434255
151,Rheine,52.2763,7.434255
190,Rheine,52.2763,7.434255
454,Rheine,52.2763,7.434255
545,Ribnitz-Damgarten Ost,54.251015,12.487015
1057,Ribnitz-Damgarten West,54.239178,12.436965
259,Ribnitz-Damgarten West,54.239178,12.436965
1156,Riesa,51.309654,13.287734
1158,Riesa,51.309654,13.287734
784,Rijeka,45.330135,14.430337
1120,Ringsheim,48.248726,7.773037
1307,Ringsheim,48.248726,7.773037
1011,Ringsted st,55.438038,11.786155
247,Ringsted st,55.438038,11.786155
1281,Roedekro st,55.069687,9.332754
807,Roedekro st,55.069687,9.332754
1185,Ropczyce,50.078583,21.582882
1016,Rosenheim,47.850018,12.119202
1163,Rosenheim,47.850018,12.119202
1360,Rosenheim,47.850018,12.119202
1404,Rosenheim,47.850018,12.119202
748,Rosenheim,47.850018,12.119202
984,Rosenheim,47.850018,12.119202
114,Rostock Hbf,54.078247,12.131079
344,Rostock Hbf,54.078247,12.131079
6,Rostock Hbf,54.078247,12.131079
82,Rostock Hbf,54.078247,12.131079
1130,Rottweil,48.165302,8.639295
397,Rottweil,48.165302,8.639295
1330,Rovereto,45.89096,11.033601
865,Rzepin,52.350224,14.815073
236,Rzeszow Gl.,50.043114,22.006798
376,Rzeszow Zachodni,50.053528,21.994028
271,Saarbrücken Hbf,49.241066,6.991021
29,Saarbrücken Hbf,49.241066,6.991021
501,Saarbrücken Hbf,49.241066,6.991021
1013,Salzburg Hbf,47.81305,13.04582
1033,Salzburg Hbf,47.81305,13.04582
1087,Salzburg Hbf,47.81305,13.04582
237,Salzburg Hbf,47.81305,13.04582
275,Salzburg Hbf,47.81305,13.04582
404,Salzburg Hbf,47.81305,13.04582
434,Salzburg Hbf,47.81305,13.04582
767,Salzburg Hbf,47.81305,13.04582
876,Salzburg Hbf,47.81305,13.04582
590,Salzburg Süd,47.770226,13.078491
917,Salzburg Süd,47.770226,13.078491
1234,Salzwedel,52.858112,11.162035
378,Salzwedel,52.858112,11.162035
540,Salzwedel,52.858112,11.162035
331,Sapjane,45.477036,14.244352
1019,Sapjane(Gr),45.505157,14.244213
709,Sargans,47.044823,9.44626
461,Schaffhausen,47.69828,8.632756
725,Schaffhausen,47.69828,8.632756
769,Schaffhausen,47.69828,8.632756
1273,Scharbeutz,54.01874,10.745762
142,Scharbeutz,54.01874,10.745762
656,Schladming,47.393826,13.678151
451,Schleswig,54.49946,9.53814
687,Schleswig,54.49946,9.53814
1263,Schlüchtern,50.34118,9.510039
633,Schorndorf,48.80715,9.52631
787,Schorndorf,48.80715,9.52631
1125,Schwarzach-St.Veit,47.318535,13.154464
1191,Schwerin Hbf,53.63474,11.407455
605,Schwerin Hbf,53.63474,11.407455
636,Schwerin Hbf,53.63474,11.407455
102,Schwäbisch Gmünd,48.80101,9.787795
1175,Schwäbisch Gmünd,48.80101,9.787795
1179,Schärding,48.46372,13.442511
169,Schärding,48.46372,13.442511
327,Schöna(Gr),50.860054,14.222133
694,Sedziszow Malopolski,50.07528,21.694704
1300,Seefeld in Tirol,47.32873,11.189483
486,Seefeld in Tirol,47.32873,11.189483
866,Seefeld in Tirol,47.32873,11.189483
766,Selzthal,47.550243,14.312841
475,Semmering,47.639553,15.830923
300,Sevnica,46.009678,15.301231
1024,Siegburg/Bonn,50.793915,7.203026
184,Siegburg/Bonn,50.793915,7.203026
229,Siegburg/Bonn,50.793915,7.203026
710,Sierksdorf,54.068523,10.769108
1166,Singen(Hohentwiel),47.75844,8.840383
1332,Singen(Hohentwiel),47.75844,8.840383
228,Singen(Hohentwiel),47.75844,8.840383
256,Singen(Hohentwiel),47.75844,8.840383
719,Singen(Hohentwiel),47.75844,8.840383
1221,Skanderborg st,56.043564,9.924497
1230,Skanderborg st,56.043564,9.924497
119,Slagelse st,55.407555,11.348057
1381,Slagelse st,55.407555,11.348057
1383,Slagelse st,55.407555,11.348057
744,Soest,51.57842,8.104589
902,Soest,51.57842,8.104589
1108,Solingen Hbf,51.160767,7.004187
215,Solingen Hbf,51.160767,7.004187
465,Solingen Hbf,51.160767,7.004187
92,Solingen Hbf,51.160767,7.004187
1202,Sonthofen,47.51324,10.272344
1309,Sopot,54.440166,18.562323
39,Soroe st,55.419018,11.568794
653,Soroe st,55.419018,11.568794
277,Spaichingen,48.06899,8.740147
648,Spaichingen,48.06899,8.740147
357,Spiez,46.686398,7.680103
442,Spiez,46.686398,7.680103
450,Spiez,46.686398,7.680103
316,Spittal-Millstättersee,46.7957,13.487416
908,Spittal-Millstättersee,46.7957,13.487416
1111,St. Anton am Arlberg,47.127563,10.26699
898,St. Anton am Arlberg,47.127563,10.26699
187,St. Gallen(CH),47.42318,9.369897
854,St. Gallen(CH),47.42318,9.369897
855,St. Gallen(CH),47.42318,9.369897
1401,St. Johann im Pongau,47.348377,13.194961
883,St. Johann im Pongau,47.348377,13.194961
519,St. Margrethen SG,47.453217,9.638262
99,St. Margrethen SG,47.453217,9.638262
575,St.Michael in Obersteiermark,47.346622,15.009187
1344,St.Pölten Hbf,48.2083,15.624672
783,St.Pölten Hbf,48.2083,15.624672
1140,Stadt Rottenmann,47.52723,14.367174
1352,Stadt Rottenmann,47.52723,14.367174
650,Stadtroda,50.868217,11.722792
942,Stadtroda,50.868217,11.722792
71,Stainach-Irdning,47.529194,14.106753
50,Steinach(b Rothenburg ob der Tauber),49.453217,10.273535
628,Steinach(b Rothenburg ob der Tauber),49.453217,10.273535
936,Steinach(b Rothenburg ob der Tauber),49.453217,10.273535
1154,Stendal Hbf,52.594723,11.854412
1253,Stendal Hbf,52.594723,11.854412
335,Stendal Hbf,52.594723,11.854412
755,Stendal Hbf,52.594723,11.854412
1382,Stralsund Hbf,54.308624,13.077321
140,Stralsund Hbf,54.308624,13.077321
44,Stralsund Hbf,54.308624,13.077321
663,Stralsund Hbf,54.308624,13.077321
802,Stralsund Hbf,54.308624,13.077321
948,Stralsund Hbf,54.308624,13.077321
1231,Strasbourg,48.58534,7.734067
1369,Straubing,48.87698,12.574094
962,Straubing,48.87698,12.574094
594,Stresa,45.88453,8.531633
1173,Sturovo,47.800125,18.67992
1096,Stuttgart Hbf,48.784084,9.181635
1208,Stuttgart Hbf,48.784084,9.181635
1255,Stuttgart Hbf,48.784084,9.181635
1293,Stuttgart Hbf,48.784084,9.181635
1311,Stuttgart Hbf,48.784084,9.181635
1391,Stuttgart Hbf,48.784084,9.181635
2,Stuttgart Hbf,48.784084,9.181635
203,Stuttgart Hbf,48.784084,9.181635
255,Stuttgart Hbf,48.784084,9.181635
263,Stuttgart Hbf,48.784084,9.181635
298,Stuttgart Hbf,48.784084,9.181635
370,Stuttgart Hbf,48.784084,9.181635
419,Stuttgart Hbf,48.784084,9.181635
48,Stuttgart Hbf,48.784084,9.181635
494,Stuttgart Hbf,48.784084,9.181635
985,Stuttgart Hbf,48.784084,9.181635
1009,Sulz(Neckar),48.366486,8.636748
1053,Swiebodzin,52.245144,15.53954
1051,Szob,47.821,18.862057
511,Szob(Gr),47.824898,18.844774
949,Tarnow,50.0054,20.97418
1316,Tatabanya,47.58493,18.393612
441,Tczew,54.09732,18.790155
288,Telfs-Pfaffenhofen,47.30071,11.078869
697,Telfs-Pfaffenhofen,47.30071,11.078869
912,Thun,46.754692,7.629414
915,Thun,46.754692,7.629414
130,Timmendorfer Strand,53.994213,10.76227
1331,Tinglev st,54.936172,9.258234
313,Tinglev st,54.936172,9.258234
179,Traunstein,47.869728,12.638801
291,Traunstein,47.869728,12.638801
9,Trento,46.07229,11.1189
1177,Treuchtlingen,48.961266,10.908159
309,Treuchtlingen,48.961266,10.908159
466,Treuchtlingen,48.961266,10.908159
612,Treuchtlingen,48.961266,10.908159
532,Treysa,50.91066,9.185673
761,Treysa,50.91066,9.185673
1184,Tullnerfeld,48.295235,15.996536
398,Tuttlingen,47.98058,8.798542
699,Tuttlingen,47.98058,8.798542
116,Tutzing,47.907143,11.27289
1235,Tutzing,47.907143,11.27289
1194,Tübingen Hbf,48.515812,9.055407
1236,Tübingen Hbf,48.515812,9.055407
806,Tübingen Hbf,48.515812,9.055407
1251,Uelzen,52.96978,10.553053
1363,Uelzen,52.96978,10.553053
319,Uelzen,52.96978,10.553053
1118,Ulm Hbf,48.399437,9.982227
1233,Ulm Hbf,48.399437,9.982227
131,Ulm Hbf,48.399437,9.982227
261,Ulm Hbf,48.399437,9.982227
456,Ulm Hbf,48.399437,9.982227
509,Ulm Hbf,48.399437,9.982227
1216,Unna,51.538982,7.692858
580,Unna,51.538982,7.692858
250,Usti nad Labem hl.n.,50.65956,14.044728
1247,Utrecht Centraal,52.089397,5.109861
168,Utrecht Centraal,52.089397,5.109861
635,Utrecht Centraal,52.089397,5.109861
678,Utrecht Centraal,52.089397,5.109861
750,Utrecht Centraal,52.089397,5.109861
981,Utrecht Centraal,52.089397,5.109861
518,Vac,47.782726,19.13306
1012,Vaihingen(Enz),48.948116,8.957632
1289,Vaihingen(Enz),48.948116,8.957632
204,Vaihingen(Enz),48.948116,8.957632
790,Vaihingen(Enz),48.948116,8.957632
661,Vamdrup st,55.428093,9.286454
892,Vamdrup st,55.428093,9.286454
123,Vejle st,55.706356,9.536869
1361,Vejle st,55.706356,9.536869
702,Velden am Wörther See,46.62005,14.044838
715,Velden am Wörther See,46.62005,14.044838
405,Velgast,54.277317,12.803137
695,Venezia Mestre,45.481907,12.231898
213,Venezia Santa Lucia,45.441395,12.320459
1204,Venlo,51.364407,6.171838
732,Venlo(Gr),51.340893,6.192712
1284,Verden(Aller),52.92082,9.237855
574,Verden(Aller),52.92082,9.237855
874,Verona Porta Nuova,45.428658,10.982739
1341,Viby Jylland st,56.12235,10.160388
399,Viby Jylland st,56.12235,10.160388
27,Vicenza,45.5411,11.540777
714,Viersen,51.254948,6.403896
752,Viersen,51.254948,6.403896
117,Villach Hbf,46.618626,13.848536
1248,Villach Hbf,46.618626,13.848536
488,Villach Hbf,46.618626,13.848536
507,Villach Hbf,46.618626,13.848536
531,Villach Hbf,46.618626,13.848536
86,Villach Hbf,46.618626,13.848536
991,Villach Hbf,46.618626,13.848536
673,Visp,46.29403,7.881465
1063,Vojens st,55.248478,9.304915
7,Vojens st,55.248478,9.304915
1359,Wabern(Bz Kassel),51.103134,9.35804
95,Wabern(Bz Kassel),51.103134,9.35804
1104,Wanne-Eickel Hbf,51.531258,7.165783
489,Wanne-Eickel Hbf,51.531258,7.165783
516,Wanne-Eickel Hbf,51.531258,7.165783
1190,Warburg(Westf),51.492954,9.163845
1224,Warburg(Westf),51.492954,9.163845
30,Warburg(Westf),51.492954,9.163845
1048,Waren(Müritz),53.52151,12.680678
320,Waren(Müritz),53.52151,12.680678
347,Warnemünde,54.176853,12.091271
588,Warszawa Centralna,52.22886,21.003235
194,Warszawa Wschodnia,52.25155,21.052336
224,Warszawa Zachodnia,52.21997,20.965246
272,Weil am Rhein,47.59397,7.608419
857,Weil am Rhein,47.59397,7.608419
1144,Weilheim(Oberbay),47.845364,11.14286
1347,Weilheim(Oberbay),47.845364,11.14286
706,Weilheim(Oberbay),47.845364,11.14286
1119,Weimar,50.991486,11.326458
363,Weimar,50.991486,11.326458
552,Weimar,50.991486,11.326458
598,Weinheim(Bergstr)Hbf,49.553303,8.665351
607,Weinheim(Bergstr)Hbf,49.553303,8.665351
1302,Weißenfels,51.204617,11.970926
586,Weißenfels,51.204617,11.970926
1195,Wels Hbf,48.166077,14.026569
32,Wels Hbf,48.166077,14.026569
439,Wels Hbf,48.166077,14.026569
1225,Werfen,47.4726,13.195183
813,Werfen,47.4726,13.195183
858,Westerland(Sylt),54.906837,8.310925
609,Westerstede-Ocholt,53.202168,7.886468
751,Westerstede-Ocholt,53.202168,7.886468
1121,Wien Hbf,48.184925,16.375866
1136,Wien Hbf,48.184925,16.375866
1201,Wien Hbf,48.184925,16.375866
333,Wien Hbf,48.184925,16.375866
471,Wien Hbf,48.184925,16.375866
758,Wien Hbf,48.184925,16.375866
819,Wien Hbf,48.184925,16.375866
989,Wien Hbf,48.184925,16.375866
992,Wien Hbf,48.184925,16.375866
1312,Wien Meidling,48.17445,16.333088
143,Wien Meidling,48.17445,16.333088
324,Wien Meidling,48.17445,16.333088
592,Wien Meidling,48.17445,16.333088
1229,Wiener Neustadt Hbf,47.81056,16.233187
318,Wiener Neustadt Hbf,47.81056,16.233187
191,Wiesbaden Hbf,50.07079,8.243731
54,Wiesbaden Hbf,50.07079,8.243731
1178,Wiesloch-Walldorf,49.29135,8.664146
618,Wiesloch-Walldorf,49.29135,8.664146
724,Wiesloch-Walldorf,49.29135,8.664146
1258,Winterthur,47.500336,8.723821
570,Winterthur,47.500336,8.723821
1114,Wolfsburg Hbf,52.429497,10.787784
242,Wolfsburg Hbf,52.429497,10.787784
666,Wolfsburg Hbf,52.429497,10.787784
904,Wolfsburg Hbf,52.429497,10.787784
251,Worms Hbf,49.63494,8.356448
364,Worms Hbf,49.63494,8.356448
91,Wroclaw Glowny,51.09808,17.037088
174,Wuppertal Hbf,51.254364,7.149543
624,Wuppertal Hbf,51.254364,7.149543
833,Wuppertal Hbf,51.254364,7.149543
104,Wörgl Hbf,47.4918,12.060581
383,Wörgl Hbf,47.4918,12.060581
1008,Würzburg Hbf,49.801796,9.93578
1086,Würzburg Hbf,49.801796,9.93578
1276,Würzburg Hbf,49.801796,9.93578
180,Würzburg Hbf,49.801796,9.93578
400,Würzburg Hbf,49.801796,9.93578
756,Würzburg Hbf,49.801796,9.93578
800,Würzburg Hbf,49.801796,9.93578
128,Zabrze,50.30528,18.786947
1389,Zagreb Glavni kolodvor,45.80444,15.978705
429,Zbaszynek,52.242508,15.818092
1010,Zidani Most,46.085587,15.170324
546,Zielona Gora Gl.,51.947437,15.513709
477,Zürich Flughafen,47.450386,8.562402
626,Zürich Flughafen,47.450386,8.562402
1133,Zürich HB,47.378178,8.540212
1168,Zürich HB,47.378178,8.540212
1395,Zürich HB,47.378178,8.540212
152,Zürich HB,47.378178,8.540212
167,Zürich HB,47.378178,8.540212
206,Zürich HB,47.378178,8.540212
355,Zürich HB,47.378178,8.540212
521,Zürich HB,47.378178,8.540212
809,Zürich HB,47.378178,8.540212
886,Zürich HB,47.378178,8.540212
901,Zürich HB,47.378178,8.540212
993,Zürich HB,47.378178,8.540212
999,Zürich HB,47.378178,8.540212
1052,Züssow,53.97388,13.548191
843,Züssow,53.97388,13.548191
1018,Ötztal,47.238483,10.859114
282,Ötztal,47.238483,10.859114
1319,Übersee,47.82205,12.487338
878,Übersee,47.82205,12.487338