stop_id,stop_name,stop_lat,stop_lon
10267,'s-Hertogenbosch,51.69054,5.293723
376,'s-Hertogenbosch,51.69054,5.293723
10909,Aachen Hbf,50.7678,6.091499
1235,Aachen Hbf,50.7678,6.091499
1364,Aachen Hbf,50.7678,6.091499
3102,Aachen Hbf,50.7678,6.091499
3977,Aachen Hbf,50.7678,6.091499
4757,Aachen Hbf,50.7678,6.091499
7847,Aachen Hbf,50.7678,6.091499
3283,Aachen Schanz,50.769863,6.07384
8167,Aachen Schanz,50.769863,6.07384
12736,Aachen Süd(Gr),50.731915,6.04541
3641,Aachen West,50.78036,6.070715
5503,Aachen West,50.78036,6.070715
5461,Aachen-Rothe Erde,50.770203,6.116475
7975,Aachen-Rothe Erde,50.770203,6.116475
12352,Aalen Hbf,48.841015,10.096271
12520,Aalen Hbf,48.841015,10.096271
5537,Aalen Hbf,48.841015,10.096271
6152,Aalen Hbf,48.841015,10.096271
8919,Aalen Hbf,48.841015,10.096271
6770,Aarhus,56.150074,10.204997
12017,Abenden,50.671085,6.476459
1143,Abensberg,48.819454,11.84662
3024,Abensberg,48.819454,11.84662
13319,Abzw. Einthal,48.952934,12.168058
4240,Achern,48.63399,8.065324
6440,Achern,48.63399,8.065324
9659,Achern,48.63399,8.065324
9926,Achern,48.63399,8.065324
4883,Achern Bahnhof,48.633778,8.065353
10197,Achern Stadt,48.625736,8.067706
8467,Achern Stadt,48.62553,8.068048
5072,Achim,53.01599,9.030447
9072,Achim,53.01599,9.030447
2031,Achkarren,48.06009,7.60787
7687,Achkarren Bahnhof,48.05957,7.608039
1057,Achmer,52.39048,7.94216
6682,Achmer,52.39048,7.94216
4289,Achterwehr,54.314915,9.964024
13269,Adelebsen,51.57769,9.760044
8230,Adelebsen,51.57769,9.760044
4767,Adelschlag,48.84076,11.211443
845,Adelschlag,48.84076,11.211443
1562,Adelsdorf(Mittelfr),49.474945,10.687041
11032,Adelsheim Nord,49.42149,9.392754
5996,Adelsheim Nord,49.42149,9.392754
105,Adelsheim Ost,49.403122,9.395127
11861,Adelsheim Ost,49.403122,9.395127
10015,Adorf(Erzgeb),50.76385,12.873666
2142,Adorf(Vogtl),50.324394,12.260678
3445,Adorf(Vogtl),50.324394,12.260678
6969,Adorf(Vogtl),50.324394,12.260678
4811,Agatharied,47.765606,11.824472
11793,Agathenburg,53.56411,9.531244
2148,Agathenburg,53.56411,9.531244
7772,Aglasterhausen,49.350098,8.990838
10150,Aha,47.833225,8.134349
5894,Aha,47.833225,8.134349
9480,Ahaus,52.08168,7.016453
718,Ahlbeck Grenze,53.921967,14.215549
5583,Ahlbeck Ostseetherme,53.944427,14.177287
11028,Ahlen(Westf),51.761063,7.895488
8675,Ahlen(Westf),51.761063,7.895488
13302,Ahlhorn,52.899323,8.209429
2331,Ahlhorn,52.899323,8.209429
6742,Ahlten,52.37606,9.904613
12186,Ahnatal-Casselbreite Gl.1 Ri. Kassel,51.36284,9.433889
919,Ahnatal-Casselbreite Gl.1 Ri. Wolfhagen,51.36284,9.433889
760,Ahnatal-Heckershausen Gl.1 Ri. Kassel,51.362988,9.422978
7621,Ahnatal-Heckershausen Gl.2 Ri. Wolfhagen,51.362988,9.422978
5347,Ahnatal-Weimar,51.36363,9.391588
11489,Ahnatal-Weimar Gl.1 Ri. Kassel,51.363632,9.392114
11552,Ahnatal-Weimar Gl.1 Ri.Wolfhagen,51.363632,9.392114
3154,Ahrensburg,53.66917,10.236206
3792,Ahrensburg,53.66917,10.236206
6191,Ahrensburg,53.66917,10.236206
9642,Ahrensburg,53.66917,10.236206
11537,Ahrensburg-Gartenholz,53.68848,10.251786
517,Ahrensburg-Gartenholz,53.68848,10.251786
11491,Ahrensfelde,52.571377,13.565154
1411,Ahrensfelde Friedhof,52.580883,13.573316
8354,Ahrensfelde Nord,52.590687,13.581985
11654,Ahrweiler,50.546543,7.107071
6016,Aich(Niederbay),48.417316,12.398163
12834,Aichach,48.461117,11.122721
7138,Aichach,48.461117,11.122721
11153,Aichstetten,47.887882,10.07494
3114,Aichstetten,47.887882,10.07494
1747,Aix-en-Provence TGV,43.45517,5.317224
4336,Albbruck,47.592236,8.131774
6594,Albbruck,47.592236,8.131774
3382,Albersdorf,54.14632,9.292151
4018,Albersweiler(Pfalz),49.21847,8.024464
13687,Albig,49.771374,8.116579
7336,Albig,49.771374,8.116579
11610,Albrechtshof,52.549397,13.128917
6764,Albrechtshof,52.549397,13.128917
10697,Albshausen,50.545715,8.434869
11130,Albshausen,50.545715,8.434869
4291,Albsheim(Eis),49.58075,8.179166
1970,Albstadt-Ebingen,48.21029,9.026962
8719,Albstadt-Ebingen,48.21029,9.026962
3,Albstadt-Ebingen West,48.21139,8.99698
8830,Albstadt-Ebingen West,48.21139,8.99698
834,Albstadt-Laufen Ort,48.22286,8.917316
6597,Albstadt-Lautlingen,48.21364,8.95462
3153,Aldekerk,51.43576,6.412542
6564,Aldekerk,51.43576,6.412542
11760,Aldingen(b Spaichingen),48.095844,8.713033
4758,Aldingen(b Spaichingen),48.095844,8.713033
2576,Aletshausen,48.201313,10.383631
2299,Alfeld(Leine),51.98142,9.817779
6438,Alfeld(Leine),51.98142,9.817779
10274,Alfter-Impekoven,50.711018,7.019831
7610,Alfter-Impekoven,50.711018,7.019831
10201,Alfter-Witterschlick,50.689697,7.026083
3346,Alfter-Witterschlick,50.689697,7.026083
2380,Algermissen,52.251965,9.96666
397,Algermissen,52.251965,9.96666
7151,Alheim-Heinebach Gl. 1 Ri. Kassel,51.045612,9.664914
8530,Aligse,52.40346,9.979349
9151,Aligse,52.40346,9.979349
5371,Alken st(DK),56.0526,9.845772
17,Allendorf(Dillkr),50.743813,8.185486
13479,Allensbach,47.714462,9.068852
9872,Allensbach,47.714462,9.068852
13372,Allerheiligenhöfe,47.26903,11.352969
13259,Allersberg(Rothsee),49.26213,11.212573
826,Allersberg(Rothsee),49.26213,11.212573
9482,Allersberg(Rothsee),49.26213,11.212573
1955,Allmendingen,48.327736,9.722382
4947,Allmendingen,48.327736,9.722382
6766,Alpen,51.583393,6.518041
13702,Alpirsbach,48.343807,8.398251
2095,Alpirsbach,48.343807,8.398251
10463,Alpirsbach Bahnhof,48.343884,8.398233
10777,Alpirsbach Bahnhof,48.34392,8.398197
13572,Alsdorf Poststraße,50.855747,6.197075
10306,Alsdorf(Westerw),50.78089,7.890486
10017,Alsdorf-Annapark,50.870518,6.156661
837,Alsdorf-Busch,50.876587,6.140586
8682,Alsdorf-Kellersberg,50.867527,6.167354
5449,Alsdorf-Mariadorf,50.861977,6.188454
13124,Alsenz,49.727493,7.817189
8863,Alsenz,49.727493,7.817189
9736,Alsenz,49.727493,7.817189
11395,Alsfeld(Oberhess),50.75096,9.264297
4260,Alsfeld(Oberhess),50.75096,9.264297
5895,Alsfeld(Oberhess),50.75096,9.264297
13257,Alsheim,49.76553,8.342462
1346,Alsheim,49.76553,8.342462
3928,Alsheim,49.76553,8.342462
10141,Alt Hüttendorf,52.957592,13.783574
10843,Alt Rosenthal,52.550404,14.278627
12581,Alt Rosenthal,52.550404,14.278627
12094,Altbach,48.720394,9.382384
9942,Altbach,48.720394,9.382384
10628,Altdorf West,49.391148,11.341467
12262,Altdorf(b Nürnberg),49.390007,11.35353
1711,Altdorf(b Nürnberg),49.390007,11.35353
11429,Altdöbern,51.65278,14.009236
9456,Alte Veste,49.454323,10.972363
13089,Altefähr,54.322926,13.14101
3010,Altefähr,54.322926,13.14101
797,Altenau(Bay),47.648365,11.017375
4712,Altenbach,51.35587,12.682324
8461,Altenbach,51.35587,12.682324
13419,Altenbamberg,49.786858,7.830745
8307,Altenbamberg,49.786858,7.830745
12808,Altenbeken,51.766434,8.943319
12897,Altenbeken,51.766434,8.943319
36,Altenbeken,51.766434,8.943319
3945,Altenbeken,51.766434,8.943319
5027,Altenbeken,51.766434,8.943319
10564,Altenberge,52.052258,7.481303
5240,Altenberge,52.052258,7.481303
3068,Altenburg,50.996647,12.444019
3756,Altenburg,50.996647,12.444019
9674,Altenburg,50.996647,12.444019
2856,Altenerding,48.29357,11.901744
5637,Altenerding,48.29357,11.901744
10109,Altenfeld(Rhön),50.450897,9.849726
169,Altenglan,49.54864,7.461841
8357,Altenglan,49.54864,7.461841
292,Altengörs,53.898697,10.355554
8835,Altenhasungen,51.34354,9.225737
1106,Altenkirchen(Westerwald),50.684418,7.638257
1735,Altenkirchen(Westerwald),50.684418,7.638257
12646,Altenmarkt(Alz),47.999817,12.536027
7417,Altenseelbach,50.783836,7.992398
50,Altenstadt(Hess),50.283398,8.943977
9391,Altenstadt(Hess),50.283398,8.943977
10034,Altenstadt(Iller),48.16119,10.109983
13638,Altenstadt(Iller),48.16119,10.109983
1814,Altenstadt(Waldnaab),49.71568,12.16487
6330,Altenstadt(Waldnaab),49.71568,12.16487
12538,Altenstadt-Höchst,50.269768,8.923418
11086,Altenstadt-Lindheim,50.291332,8.978775
4129,Altenwillershagen,54.259407,12.572818
5088,Altenwillershagen,54.259407,12.572818
3542,Altersbach,50.70064,10.544522
11925,Altes Lager,52.017357,12.989048
7857,Altglashütten-Falkau,47.85939,8.114113
3490,Althegnenberg,48.236374,11.063003
7121,Althegnenberg,48.236374,11.063003
4844,Altheim(Hess),49.923332,8.890906
5222,Altheim(Hess),49.923332,8.890906
918,Althof,54.090443,11.922341
6059,Altingen(Württ),48.561928,8.908852
9160,Altmarkt/Regierungspräsidium Ri. Am Stern,51.31612,9.504504
3942,Altmarkt/Regierungspräsidium von Am Stern,51.31612,9.504504
10152,Altmittweida,50.968704,12.959645
6027,Altmittweida,50.968704,12.959645
11821,Altmorschen,51.067276,9.610756
12560,Altmorschen,51.067276,9.610756
12859,Altomünster,48.38492,11.255133
4481,Altomünster,48.38492,11.255133
10013,Altranft,52.763367,14.082107
9375,Altshausen,47.93071,9.551478
2122,Altstädten(Allgäu),47.48855,10.280907
7632,Altstädten(Allgäu),47.48855,10.280907
5748,Alttann,47.841213,9.793037
11569,Altötting,48.22124,12.67479
6889,Altötting,48.22124,12.67479
12011,Alveslohe,53.791454,9.916375
7916,Alzenau Burg,50.08793,9.07434
2444,Alzenau Nord,50.089443,9.051385
5564,Alzenau(Unterfr),50.088715,9.065603
2017,Alzey,49.7502,8.109749
3235,Alzey,49.7502,8.109749
4864,Alzey,49.7502,8.109749
6753,Alzey,49.7502,8.109749
7370,Alzey Süd,49.738132,8.118732
9815,Alzey West,49.74098,8.107255
2557,Am Silbernen Mann Drängetal Gleis 1,51.798153,10.729809
4698,Am Silbernen Mann Drängetal Gleis 2,51.798153,10.729896
12277,Am Stern von Altmarkt,51.318,9.500465
9739,Am Stern von Holländ. Platz,51.318146,9.500323
4514,Am Stern von Königsplatz,51.317947,9.500235
10828,Am Stern von Lutherplatz,51.318073,9.500064
10770,Am Weinberg Ri. Heinrich-Heine-Straße,51.30726,9.487671
11978,Am Weinberg Ri. Rathaus,51.30726,9.487671
1248,Amberg,49.447617,11.862902
7436,Amberg,49.447617,11.862902
9479,Amberg,49.447617,11.862902
10939,Ammern,51.233345,10.458086
12156,Amorbach,49.64561,9.223147
13637,Amorbach,49.64561,9.223147
5445,Ampfing,48.25395,12.410919
6795,Ampfing,48.25395,12.410919
12372,Amsterdam Centraal,52.37919,4.899431
1519,Amsterdam Centraal,52.37919,4.899431
5620,Amsterdam Centraal,52.37919,4.899431
7149,Amsterdam Centraal,52.37919,4.899431
9839,Amsterdam Centraal,52.37919,4.899431
5168,Amstetten NÖ,48.121605,14.878112
10750,Amstetten(Württ),48.578327,9.872965
3893,Amstetten(Württ),48.578327,9.872965
2877,Ancona,43.6076,13.497795
11364,Andernach,50.434544,7.404839
12060,Andernach,50.434544,7.404839
2145,Andernach,50.434544,7.404839
3922,Andernach,50.434544,7.404839
4177,Andernach,50.434544,7.404839
1514,Angermund,51.33075,6.781857
6146,Angermund,51.33075,6.781857
1232,Angermünde,53.01522,13.996361
4535,Angermünde,53.01522,13.996361
5127,Angermünde,53.01522,13.996361
8042,Angermünde,53.01522,13.996361
8753,Angermünde,53.01522,13.996361
8865,Angermünde,53.01522,13.996361
12395,Angern-Rogätz,52.338463,11.759535
12500,Angern-Rogätz,52.338463,11.759535
6350,Angersbach,50.63077,9.44726
10489,Anklam,53.856102,13.701827
466,Anklam,53.856102,13.701827
960,Anklam,53.856102,13.701827
5540,Annaberg-Buchholz Mitte,50.56679,12.999078
13159,Annaberg-Buchholz Süd,50.555885,12.997404
3608,Annaberg-Buchholz Süd,50.555885,12.997404
12429,Annaberg-Buchholz unterer Bf,50.57861,12.998313
9652,Annaberg-Buchholz unterer Bf,50.57861,12.998313
2346,Annaburg,51.72868,13.032757
9718,Annaburg,51.72868,13.032757
10690,Annweiler am Trifels,49.205387,7.966149
248,Annweiler am Trifels,49.205387,7.966149
9216,Annweiler am Trifels,49.205387,7.966149
13349,Annweiler-Sarnstall,49.208725,7.937192
4429,Anrath,51.285538,6.45023
8564,Anrath,51.285538,6.45023
11240,Ansbach,49.29803,10.578239
4165,Ansbach,49.29803,10.578239
6360,Ansbach,49.29803,10.578239
704,Ansbach,49.29803,10.578239
8183,Ansbach,49.29803,10.578239
8699,Ansbach,49.29803,10.578239
9579,Ansbach,49.29803,10.578239
6872,Antonsthal,50.49994,12.755245
12380,Anwanden,49.411694,10.930396
9730,Anwanden,49.411694,10.930396
1236,Anzefahr,50.84573,8.85959
3000,Anzefahr,50.84573,8.85959
11159,Anzenkirchen,48.43474,13.021996
5110,Apach(Moselle),49.458786,6.371969
2495,Apach(fr),49.46902,6.369699
5433,Apensen,53.441666,9.612345
13365,Apolda,51.03094,11.526136
3843,Apolda,51.03094,11.526136
5440,Apolda,51.03094,11.526136
12260,Appenweier,48.541462,7.97319
664,Appenweier,48.541462,7.97319
8101,Appenweier,48.541462,7.97319
1765,Appenweier Bahnhof,48.54143,7.973276
4028,Appenweier Bahnhof,48.540558,7.971569
79,Appenweier Bahnhof,48.54137,7.973402
4709,Ardey,51.481163,7.727176
2316,Arensdorf(Köthen),51.70951,12.007416
8788,Arensdorf(Köthen),51.70951,12.007416
1428,Arenshausen,51.375053,9.968559
1538,Arenshausen,51.375053,9.968559
10191,Arfurt(Lahn),50.406403,8.211079
2025,Arfurt(Lahn),50.406403,8.211079
2811,Armsheim,49.808372,8.074113
4917,Armsheim,49.808372,8.074113
8941,Armsheim,49.808372,8.074113
2137,Arnbach,48.34132,11.344044
10117,Arnhem Centraal,51.98478,5.901003
13385,Arnhem Centraal,51.98478,5.901003
2835,Arnhem Centraal,51.98478,5.901003
4141,Arnhem Centraal,51.98478,5.901003
7182,Arnhem Centraal,51.98478,5.901003
7755,Arnhem Centraal,51.98478,5.901003
839,Arnhem Centraal,51.98478,5.901003
8800,Arnhem Centraal,51.98478,5.901003
9285,Arnsberg(Westf),51.405663,8.067965
9911,Arnsberg(Westf),51.405663,8.067965
2363,Arnschwang,49.27461,12.8116
6411,Arnschwang,49.27461,12.8116
1255,Arnsdorf(Dresden),51.092808,13.982212
3332,Arnsdorf(Dresden),51.092808,13.982212
4920,Arnsdorf(Dresden),51.092808,13.982212
6166,Arnsdorf(Dresden),51.092808,13.982212
1716,Arnstadt Hbf,50.841938,10.948262
6472,Arnstadt Hbf,50.841938,10.948262
7154,Arnstadt Hbf,50.841938,10.948262
10284,Arnstadt Süd,50.831085,10.954958
6875,Arnstadt Süd,50.831085,10.954958
9490,Arrach,49.195366,13.002804
3362,Arsbeck,51.151978,6.207082
6877,Artern,51.36324,11.310757
9235,Artern,51.36324,11.310757
12274,Arzberg(Oberfr),50.054634,12.197692
6641,As(CZ),50.209435,12.199936
1340,"Asch Feuerwehrhaus",47.948654,10.829829
1703,Aschaffenburg Hbf,49.980556,9.143697
2613,Aschaffenburg Hbf,49.980556,9.143697
2681,Aschaffenburg Hbf,49.980556,9.143697
3689,Aschaffenburg Hbf,49.980556,9.143697
5098,Aschaffenburg Hbf,49.980556,9.143697
5746,Aschaffenburg Hbf,49.980556,9.143697
6024,Aschaffenburg Hbf,49.980556,9.143697
6149,Aschaffenburg Hbf,49.980556,9.143697
666,Aschaffenburg Hbf,49.980556,9.143697
10330,Aschaffenburg Hochschule,49.974445,9.160416
10686,Aschaffenburg Süd,49.968464,9.152586
4821,Aschaffenburg Süd,49.968464,9.152586
636,Aschau(Chiemgau),47.779106,12.325564
11433,Ascheberg(Holst),54.14846,10.339481
3220,Ascheberg(Holst),54.14846,10.339481
6352,Ascheberg(Westf),51.78299,7.600749
6439,Ascheberg(Westf),51.78299,7.600749
9380,Aschendorf,53.052177,7.337153
9518,Aschendorf,53.052177,7.337153
12074,Aschersleben,51.757122,11.465689
13296,Aschersleben,51.757122,11.465689
2347,Aschersleben,51.757122,11.465689
4239,Aschersleben,51.757122,11.465689
7823,Aschersleben,51.757122,11.465689
9500,Aschersleben,51.757122,11.465689
10298,Ashausen,53.368694,10.145564
1813,Ashausen,53.368694,10.145564
1917,Asperg,48.90736,9.147797
6985,Asperg,48.90736,9.147797
256,Asselheim,49.57622,8.161602
11355,Assenheim(Oberhess),50.30494,8.812462
11622,Assenheim(Oberhess),50.30494,8.812462
1246,Assmannshausen,49.985325,7.867355
4402,Assmannshausen,49.985325,7.867355
6386,Assmannshausen,49.985325,7.867355
12271,Attendorn,51.124645,7.908493
365,Attendorn,51.124645,7.908493
11822,Au(Sieg),50.773766,7.656537
12678,Au(Sieg),50.773766,7.656537
2898,Au(Sieg),50.773766,7.656537
3518,Au(Sieg),50.773766,7.656537
3555,Au(Sieg),50.773766,7.656537
5175,Au(Sieg),50.773766,7.656537
10105,Aue(Sachs),50.591682,12.698518
10498,Aue(Sachs),50.591682,12.698518
12205,Aue(Sachs),50.591682,12.698518
9715,Aue(Sachs) Erzgebirgsstadion,50.596706,12.709055
2686,Aue-Wingeshausen,51.051785,8.290085
2204,Auehütte,50.719673,10.416666
7726,Auerbach(V) ob Bf,50.519135,12.382054
7868,Auerbach(V) unt Bf,50.511723,12.391421
1782,Auerbach(Vogtl) Hp,50.506954,12.379204
6760,"Auerbach(b Mosbach Baden)",49.399563,9.223276
9236,"Auerbach(b Mosbach Baden)",49.399563,9.223276
5775,Auestadion Ri. H.-Heine-Straße,51.298763,9.481215
9279,Auestadion Ri. Park Schönfeld,51.298763,9.481215
4961,Aufhausen(Württ),48.85613,10.317193
12963,Aufhausen(b Erding),48.274364,11.894375
7566,Auggen,47.789948,7.586788
7607,Auggen,47.789948,7.586788
11774,Augsburg Haunstetterstraße,48.355286,10.900985
6914,Augsburg Haunstetterstraße,48.355286,10.900985
7338,Augsburg Haunstetterstraße,48.355286,10.900985
9020,Augsburg Haunstetterstraße,48.355286,10.900985
1042,Augsburg Hbf,48.36544,10.88557
11046,Augsburg Hbf,48.36544,10.88557
11510,Augsburg Hbf,48.36544,10.88557
11556,Augsburg Hbf,48.36544,10.88557
12145,Augsburg Hbf,48.36544,10.88557
13377,Augsburg Hbf,48.36544,10.88557
13581,Augsburg Hbf,48.36544,10.88557
1386,Augsburg Hbf,48.36544,10.88557
168,Augsburg Hbf,48.36544,10.88557
1701,Augsburg Hbf,48.36544,10.88557
1885,Augsburg Hbf,48.36544,10.88557
3620,Augsburg Hbf,48.36544,10.88557
4262,Augsburg Hbf,48.36544,10.88557
4713,Augsburg Hbf,48.36544,10.88557
520,Augsburg Hbf,48.36544,10.88557
5267,Augsburg Hbf,48.36544,10.88557
5411,Augsburg Hbf,48.36544,10.88557
5489,Augsburg Hbf,48.36544,10.88557
5885,Augsburg Hbf,48.36544,10.88557
5888,Augsburg Hbf,48.36544,10.88557
602,Augsburg Hbf,48.36544,10.88557
6645,Augsburg Hbf,48.36544,10.88557
7291,Augsburg Hbf,48.36544,10.88557
8073,Augsburg Hbf,48.36544,10.88557
8857,Augsburg Hbf,48.36544,10.88557
8933,Augsburg Hbf,48.36544,10.88557
9265,Augsburg Hbf,48.36544,10.88557
13639,Augsburg Messe,48.338684,10.886086
4571,Augsburg Messe,48.338684,10.886086
10339,Augsburg Morellstr.,48.355087,10.892948
7056,Augsburg Morellstr.,48.355087,10.892948
13022,Augsburg-Hochzoll,48.352978,10.943376
2631,Augsburg-Hochzoll,48.352978,10.943376
4561,Augsburg-Hochzoll,48.352978,10.943376
8352,Augsburg-Hochzoll,48.352978,10.943376
11851,Augsburg-Oberhausen,48.38077,10.872533
12682,Augsburg-Oberhausen,48.38077,10.872533
13188,Augsburg-Oberhausen,48.38077,10.872533
316,Augsburg-Oberhausen,48.38077,10.872533
3775,Augsburg-Oberhausen,48.38077,10.872533
4181,Augsburg-Oberhausen,48.38077,10.872533
9694,Augsburg-Oberhausen,48.38077,10.872533
3573,Augustfehn,53.22089,7.759659
7310,Augustfehn,53.22089,7.759659
10954,Aukrug,54.082397,9.78581
3280,Aulendorf,47.953053,9.644046
4658,Aulendorf,47.953053,9.644046
761,Aulendorf,47.953053,9.644046
7665,Aulendorf,47.953053,9.644046
9053,Aulendorf,47.953053,9.644046
3247,Aumenau,50.40042,8.249249
9671,Aumenau,50.40042,8.249249
12075,Aumühle,53.529854,10.314672
12593,Aumühle,53.529854,10.314672
3062,Aumühle,53.529854,10.314672
1587,Auringen-Medenbach,50.11361,8.332093
8779,Außenried,49.015762,13.181763
5648,Avignon TGV,43.921936,4.786044
12161,Aying,47.96876,11.769578
12320,Aying,47.96876,11.769578
12476,Aßlar,50.588657,8.462756
2738,Aßlar,50.588657,8.462756
12310,Aßling(Oberbay),47.98949,11.993518
8121,Aßling(Oberbay),47.98949,11.993518
10654,Baabe,54.362316,13.704806
7485,Baalberge,51.763046,11.784682
8959,Baalberge,51.763046,11.784682
3808,Baar-Ebenhausen,48.67494,11.460092
7062,Baar-Ebenhausen,48.67494,11.460092
5827,Babenhausen Langstadt,49.922276,8.945733
1568,Babenhausen(Hess),49.957962,8.957182
192,Babenhausen(Hess),49.957962,8.957182
2198,Babenhausen(Hess),49.957962,8.957182
4407,Babenhausen(Hess),49.957962,8.957182
2566,Babstadt,49.240196,9.060708
12810,Babylon,49.398876,12.869049
13677,Bacharach,50.056103,7.769523
724,Bacharach,50.056103,7.769523
12054,Bachern,48.28016,11.378716
8733,Bachfeld,50.405773,10.982451
6429,Bachheim,47.862072,8.399399
1755,Backnang,48.942677,9.425989
6,Backnang,48.942677,9.425989
7303,Backnang,48.942677,9.425989
7499,Backnang,48.942677,9.425989
4538,Bad Abbach,48.922733,11.994322
6324,Bad Abbach,48.922733,11.994322
2942,Bad Aibling,47.862026,12.004157
4328,Bad Aibling,47.862026,12.004157
7871,Bad Aibling Kurpark,47.857616,12.013823
8497,Bad Arolsen,51.3816,8.997792
7309,Bad Bellingen,47.730804,7.557601
9658,Bad Bellingen,47.730804,7.557601
13671,Bad Belzig,52.135967,12.594981
7683,Bad Belzig,52.135967,12.594981
13402,Bad Bentheim,52.30985,7.158539
1846,Bad Bentheim,52.30985,7.158539
7229,Bad Bentheim,52.30985,7.158539
1180,Bad Bentheim(Gr),52.3091,7.04016
13594,Bad Bergzabern,49.10321,8.002787
10074,Bad Berka,50.896137,11.28155
10589,Bad Berka,50.896137,11.28155
10213,Bad Berka Zeughausplatz,50.90044,11.280095
3232,Bad Berleburg,51.051197,8.394109
4150,Bad Bevensen,53.078247,10.574141
7364,Bad Bevensen,53.078247,10.574141
11225,Bad Birnbach,48.432854,13.074034
13297,Bad Blankenburg(Thüringerw),50.682648,11.275498
3811,Bad Blankenburg(Thüringerw),50.682648,11.275498
4041,Bad Bodendorf,50.556267,7.217217
7273,Bad Bodenteich,52.834274,10.673371
8750,Bad Bodenteich,52.834274,10.673371
10412,Bad Brambach,50.217587,12.311414
7623,Bad Bramstedt,53.920593,9.890162
7892,Bad Bramstedt Kurhaus,53.903366,9.89042
13279,Bad Breisig,50.50422,7.304564
3984,Bad Breisig,50.50422,7.304564
10642,Bad Camberg,50.296432,8.255036
9769,Bad Camberg,50.296432,8.255036
11347,Bad Doberan,54.100002,11.905335
12098,Bad Doberan,54.100002,11.905335
6954,Bad Doberan,54.100002,11.905335
8718,Bad Doberan,54.100002,11.905335
3547,Bad Doberan Goethestraße,54.108463,11.899894
1264,Bad Doberan Stadtmitte,54.10465,11.9021
10443,Bad Driburg(Westf),51.730324,9.03081
8448,Bad Driburg(Westf),51.730324,9.03081
11455,Bad Dürkheim,49.460632,8.170701
12155,Bad Dürkheim,49.460632,8.170701
89,Bad Dürkheim,49.460632,8.170701
3152,Bad Dürrenberg,51.305164,12.071053
3436,Bad Dürrenberg,51.305164,12.071053
1425,Bad Elster,50.296673,12.256286
3387,Bad Ems,50.327652,7.728637
8444,Bad Ems,50.327652,7.728637
213,Bad Ems West,50.330692,7.706039
4748,Bad Ems West,50.330692,7.706039
12314,Bad Endorf,47.905067,12.301558
13703,Bad Endorf,47.905067,12.301558
12086,Bad Fallingbostel,52.862926,9.700233
7594,Bad Freienwalde,52.789932,14.035751
13254,Bad Friedrichshall Hbf,49.23157,9.199771
13290,Bad Friedrichshall Hbf,49.23157,9.199771
1363,Bad Friedrichshall Hbf,49.23157,9.199771
3355,Bad Friedrichshall Hbf,49.23157,9.199771
566,Bad Friedrichshall Hbf,49.23157,9.199771
7692,Bad Friedrichshall Hbf,49.23157,9.199771
9134,Bad Friedrichshall-Kochendorf,49.218563,9.210985
4115,Bad Gandersheim,51.86737,10.020236
7163,Bad Gandersheim,51.86737,10.020236
1805,Bad Griesbach Bahnhof,48.448708,8.230688
7855,Bad Griesbach(Schwarzwald),48.44862,8.230569
12633,Bad Grönenbach,47.88247,10.253715
1693,Bad Grönenbach,47.88247,10.253715
2125,Bad Harzburg,51.88837,10.554219
4287,Bad Harzburg,51.88837,10.554219
8153,Bad Harzburg,51.88837,10.554219
832,Bad Harzburg,51.88837,10.554219
4345,Bad Hersfeld,50.869633,9.716182
9326,Bad Hersfeld,50.869633,9.716182
977,Bad Hersfeld,50.869633,9.716182
1750,Bad Holzhausen,52.289097,8.545854
2868,Bad Holzhausen,52.289097,8.545854
1836,Bad Homburg,50.219906,8.620624
4990,Bad Homburg,50.219906,8.620624
7817,Bad Homburg,50.219906,8.620624
8630,Bad Homburg,50.219906,8.620624
5291,Bad Honnef(Rhein),50.63977,7.219533
9333,Bad Honnef(Rhein),50.63977,7.219533
772,Bad Höhenstadt,48.494606,13.323195
3367,Bad Hönningen,50.513676,7.310871
7565,Bad Hönningen,50.513676,7.310871
4899,Bad Karlshafen,51.64627,9.44571
11069,Bad Kissingen,50.191547,10.079885
4534,Bad Kissingen,50.191547,10.079885
4654,Bad Kissingen,50.191547,10.079885
13172,Bad Kleinen,53.766975,11.466925
13310,Bad Kleinen,53.766975,11.466925
5539,Bad Kleinen,53.766975,11.466925
8399,Bad Kleinen,53.766975,11.466925
2263,Bad Kohlgrub,47.668007,11.058204
4015,Bad Kohlgrub,47.668007,11.058204
11857,Bad Kohlgrub Kurhaus,47.67021,11.039181
10866,Bad Kreuznach,49.8424,7.866435
11167,Bad Kreuznach,49.8424,7.866435
3621,Bad Kreuznach,49.8424,7.866435
7331,Bad Kreuznach,49.8424,7.866435
7971,Bad Kreuznach,49.8424,7.866435
11050,Bad Krozingen,47.91972,7.697632
4220,Bad Krozingen,47.91972,7.697632
9548,Bad Krozingen,47.91972,7.697632
2895,Bad Krozingen Ost,47.91714,7.70979
3372,Bad König,49.73858,9.001539
9928,Bad König,49.73858,9.001539
4375,Bad König Zell,49.720325,8.994116
10256,Bad Kösen,51.13074,11.718274
3755,Bad Kösen,51.13074,11.718274
12786,Bad Köstritz,50.93159,12.028452
3366,Bad Köstritz,50.93159,12.028452
12715,Bad Kötzting,49.17292,12.851892
5532,Bad Kötzting,49.17292,12.851892
4107,Bad Laasphe,50.929314,8.42072
7269,Bad Laasphe,50.929314,8.42072
13091,Bad Laasphe-Niederlaasphe,50.924324,8.442001
2606,Bad Langensalza,51.1017,10.640671
2994,Bad Langensalza,51.1017,10.640671
6310,Bad Langensalza,51.1017,10.640671
11684,Bad Lausick,51.143803,12.648695
1669,Bad Lausick,51.143803,12.648695
12438,Bad Lauterberg im Harz Barbis,51.619022,10.414607
2969,Bad Lauterberg im Harz Barbis,51.619022,10.414607
10438,Bad Liebenwerda,51.518402,13.40293
1515,Bad Liebenzell,48.77258,8.734039
3839,Bad Liebenzell,48.77258,8.734039
4357,Bad Lobenstein,50.452415,11.641806
962,Bad Lobenstein,50.452415,11.641806
12295,Bad Malente-Gremsmühlen,54.167015,10.55151
218,Bad Malente-Gremsmühlen,54.167015,10.55151
12426,Bad Mergentheim,49.49365,9.771662
1794,Bad Mergentheim,49.49365,9.771662
2838,Bad Mergentheim,49.49365,9.771662
12605,Bad Münder(Deister),52.178192,9.468062
1656,Bad Münder(Deister),52.178192,9.468062
3601,Bad Münster a Stein,49.813427,7.846989
5245,Bad Münster a Stein,49.813427,7.846989
5818,Bad Münster a Stein,49.813427,7.846989
5998,Bad Münster a Stein,49.813427,7.846989
13498,Bad Nauheim,50.367905,8.749334
13603,Bad Nauheim,50.367905,8.749334
7162,Bad Nauheim,50.367905,8.749334
2081,Bad Nenndorf,52.343735,9.378603
1889,Bad Neuenahr,50.547764,7.144304
437,Bad Neuenahr,50.547764,7.144304
12468,Bad Neustadt(Saale),50.32813,10.226134
7407,Bad Neustadt(Saale),50.32813,10.226134
7526,Bad Neustadt(Saale),50.32813,10.226134
6376,Bad Niedernau,48.460766,8.896533
1527,Bad Oeynhausen,52.2054,8.796523
830,Bad Oeynhausen,52.2054,8.796523
4433,Bad Oeynhausen Süd,52.19713,8.801723
10487,Bad Oldesloe,53.80539,10.382541
3962,Bad Oldesloe,53.80539,10.382541
4634,Bad Oldesloe,53.80539,10.382541
4733,Bad Oldesloe,53.80539,10.382541
574,Bad Peterstal,48.428894,8.201948
1100,Bad Peterstal Bahnhof,48.42888,8.20214
11171,Bad Pyrmont,51.97423,9.272719
5342,Bad Pyrmont,51.97423,9.272719
6749,Bad Rappenau,49.237766,9.101529
9638,Bad Rappenau,49.237766,9.101529
9510,Bad Rodach,50.336987,10.778387
13162,Bad Saarow,52.293255,14.064929
7719,Bad Saarow Klinikum,52.284634,14.065964
4020,Bad Sachsa,51.581944,10.573211
4307,Bad Sachsa,51.581944,10.573211
6136,Bad Salzdetfurth,52.062634,10.005595
1310,Bad Salzdetfurth Solebad,52.06994,10.018916
1828,Bad Salzhausen,50.418877,8.980381
11012,Bad Salzschlirf,50.626934,9.494484
9033,Bad Salzschlirf,50.626934,9.494484
6454,Bad Salzuflen,52.081627,8.740428
12491,Bad Salzuflen-Sylbach,52.026882,8.765529
10635,Bad Salzungen,50.81491,10.22943
5469,Bad Salzungen,50.81491,10.22943
12860,Bad Sassendorf,51.58717,8.162439
6245,Bad Sassendorf,51.58717,8.162439
2726,Bad Saulgau,48.01359,9.501083
5986,Bad Saulgau,48.01359,9.501083
3559,Bad Schandau,50.91929,14.137538
7608,Bad Schandau,50.91929,14.137538
7710,Bad Schandau,50.91929,14.137538
8799,Bad Schandau,50.91929,14.137538
6949,Bad Schlema,50.6189,12.680229
8670,Bad Schlema,50.6189,12.680229
1537,Bad Schussenried,47.994034,9.668497
3463,Bad Schussenried,47.994034,9.668497
12182,Bad Schwartau,53.916275,10.702722
6105,Bad Schwartau,53.916275,10.702722
1137,Bad Schönborn Süd,49.2,8.641924
7579,Bad Schönborn Süd,49.2,8.641924
7987,Bad Schönborn Süd,49.2,8.641924
11713,Bad Schönborn-Kronau,49.219345,8.646821
1502,Bad Schönborn-Kronau,49.219345,8.646821
11989,Bad Sebastiansweiler-Belsen,48.395565,9.030023
10934,Bad Segeberg,53.933804,10.308163
11229,Bad Segeberg,53.933804,10.308163
10208,Bad Sobernheim,49.78285,7.649816
1333,Bad Sobernheim,49.78285,7.649816
7921,Bad Sobernheim,49.78285,7.649816
12142,Bad Soden(Taunus),50.143406,8.504128
12909,Bad Soden(Taunus),50.143406,8.504128
11912,Bad Soden-Salmünster,50.280743,9.372053
5523,Bad Soden-Salmünster,50.280743,9.372053
8479,Bad Soden-Salmünster,50.280743,9.372053
10386,Bad Sooden-Allendorf,51.267975,9.968696
815,Bad Sooden-Allendorf,51.267975,9.968696
10312,Bad St Peter Süd,54.30501,8.648041
3074,Bad St Peter-Ording,54.31729,8.614736
11845,Bad Staffelstein,50.108257,10.994239
3129,Bad Staffelstein,50.108257,10.994239
713,Bad Steben,50.365093,11.64677
2146,Bad Sulza,51.09477,11.634595
8209,Bad Sulza,51.09477,11.634595
11479,Bad Säckingen,47.55586,7.94863
3479,Bad Säckingen,47.55586,7.94863
10953,Bad Teinach-Neubulach,48.67847,8.727148
442,Bad Teinach-Neubulach,48.67847,8.727148
12264,Bad Tölz,47.76058,11.57394
5471,Bad Tölz,47.76058,11.57394
3860,Bad Tönisstein,50.459316,7.298859
10904,Bad Vilbel,50.18868,8.73946
12575,Bad Vilbel,50.18868,8.73946
13190,Bad Vilbel,50.18868,8.73946
2628,Bad Vilbel,50.18868,8.73946
4035,Bad Vilbel,50.18868,8.73946
7255,Bad Vilbel,50.18868,8.73946
11747,Bad Vilbel Süd,50.178696,8.733477
13585,Bad Vilbel Süd,50.178696,8.733477
3987,Bad Vilbel-Gronau,50.19153,8.783203
3529,Bad Waldsee,47.925243,9.752274
6037,Bad Waldsee,47.925243,9.752274
2367,Bad Wildungen,51.119617,9.136091
6885,Bad Wilsnack,52.960228,11.949344
7612,Bad Wilsnack,52.960228,11.949344
11559,Bad Wimpfen,49.229744,9.167297
2795,Bad Wimpfen,49.229744,9.167297
5344,Bad Wimpfen-Hohenstadt,49.24254,9.138753
10718,Bad Windsheim,49.5066,10.412942
3619,Bad Windsheim,49.5066,10.412942
11826,Bad Wörishofen,48.00571,10.597875
1024,Bad Zwischenahn,53.18255,8.003123
995,Bad Zwischenahn,53.18255,8.003123
10591,Baddeckenstedt,52.08916,10.228767
8746,Baddeckenstedt,52.08916,10.228767
13075,Baden(Verden),53.007874,9.081261
3370,Baden(Verden),53.007874,9.081261
10573,Baden-Baden,48.790325,8.190831
10733,Baden-Baden,48.790325,8.190831
13732,Baden-Baden,48.790325,8.190831
7387,Baden-Baden,48.790325,8.190831
2660,Bagenz,51.65489,14.426908
5147,Bahlingen Riedlen,48.11802,7.747776
3156,Bahlingen am Kaiserstuhl,48.124493,7.741516
10551,Bahnhof Oranienbaum,51.800987,12.390489
5337,Bahnhof Oranienbaum,51.800987,12.390489
6377,Bahnhof Wörlitz,51.83788,12.421551
10382,Bahnsdorf,51.581745,14.112288
2955,Bahnsdorf,51.581745,14.112288
12360,Baierbrunn,48.01874,11.480027
6355,Baierbrunn,48.01874,11.480027
12064,Baiersdorf,49.656147,11.036976
7031,Baiersdorf,49.656147,11.036976
12408,Baitz,52.16415,12.685111
1639,Baitz,52.16415,12.685111
2226,Baldham,48.099255,11.78678
2842,Baldham,48.099255,11.78678
1135,Balduinstein,50.34739,7.967609
6393,Balduinstein,50.34739,7.967609
9172,Balgheim,48.065887,8.759892
2956,Balgstädt,51.208294,11.738454
12285,Balingen Süd,48.269012,8.846484
1553,Balingen(Württ),48.27847,8.850307
70,Balingen(Württ),48.27847,8.850307
8793,Balingen(Württ),48.27847,8.850307
6609,Ballstädt(Gotha),51.04075,10.707666
9955,Ballstädt(Gotha),51.04075,10.707666
10124,Baltersweiler,49.493786,7.166538
9403,Baltersweiler,49.493786,7.166538
1345,Balve,51.332596,7.863071
10316,Bamberg,49.90076,10.899489
11080,Bamberg,49.90076,10.899489
11844,Bamberg,49.90076,10.899489
1438,Bamberg,49.90076,10.899489
556,Bamberg,49.90076,10.899489
6543,Bamberg,49.90076,10.899489
7619,Bamberg,49.90076,10.899489
11831,Bammental,49.35959,8.783685
1771,Bammental,49.35959,8.783685
12435,Bannemin-Mölschow,54.071262,13.836052
10580,Bansin Seebad,53.96439,14.129385
2684,Banteln,52.066265,9.75033
6754,Banteln,52.066265,9.75033
1717,Bantorf,52.332253,9.417771
9183,Bantorf,52.332253,9.417771
3489,Bantzenheim,47.810986,7.503901
7178,Barabein,48.144733,9.826902
7106,Barbelroth,49.10412,8.070307
124,Bardowick,53.29047,10.371994
7052,Bardowick,53.29047,10.371994
7877,Bardowick,53.29047,10.371994
11020,Bargstedt,53.457542,9.446276
4290,Bargteheide,53.7282,10.269104
7284,Bargteheide,53.7282,10.269104
8317,Bargteheide,53.7282,10.269104
12110,Barleben,52.208946,11.620875
5219,Barleben,52.208946,11.620875
1705,Barmstedt,53.792976,9.772007
3997,Barmstedt Brunnenstr,53.792618,9.761888
5992,Barnstorf(Han),52.70759,8.510462
8063,Barnstorf(Han),52.70759,8.510462
18,Barnten,52.1955,9.815279
2181,Barnten,52.1955,9.815279
11268,Barrien,52.94684,8.818506
2545,Barrien,52.94684,8.818506
1007,Barsinghausen,52.30489,9.467112
5005,Barsinghausen,52.30489,9.467112
5111,Barth,54.362343,12.72646
11811,Barthmühle,50.557957,12.163681
3947,Barthmühle,50.557957,12.163681
7010,Baruth(Mark),52.057915,13.511963
7605,Baruth(Mark),52.057915,13.511963
9817,Basdorf,52.71556,13.433993
10472,Basel Bad Bf,47.567287,7.607805
10556,Basel Bad Bf,47.567287,7.607805
10911,Basel Bad Bf,47.567287,7.607805
1172,Basel Bad Bf,47.567287,7.607805
13431,Basel Bad Bf,47.567287,7.607805
1507,Basel Bad Bf,47.567287,7.607805
2474,Basel Bad Bf,47.567287,7.607805
5606,Basel Bad Bf,47.567287,7.607805
7661,Basel Bad Bf,47.567287,7.607805
7996,Basel Bad Bf,47.567287,7.607805
10050,Basel SBB,47.547405,7.589551
11477,Basel SBB,47.547405,7.589551
13683,Basel SBB,47.547405,7.589551
1720,Basel SBB,47.547405,7.589551
7071,Basel SBB,47.547405,7.589551
8023,Basel SBB,47.547405,7.589551
8956,Basel SBB,47.547405,7.589551
1073,Basse-Ham,49.38074,6.235114
3744,Bassum,52.84739,8.739924
5759,Bassum,52.84739,8.739924
7912,Batzenhäusle,48.089066,7.94108
9862,Batzenhäusle Bahnhof,48.08909,7.941053
5749,Batzhausen,49.191364,11.593033
639,Batzhausen,49.191364,11.593033
11909,Baumholder,49.612217,7.330917
2946,Baunatal-Guntershausen,51.229916,9.466997
3291,Baunatal-Guntershausen,51.229916,9.466997
5361,Baunatal-Guntershausen,51.229916,9.466997
10446,Baunatal-Guntershausen Gl.1 Ri. Kassel,51.230133,9.466239
6392,Baunatal-Guntershausen Gl.2 Ri. Melsungen,51.230133,9.466239
2187,Baunatal-Rengershausen,51.25492,9.468667
5374,Baunatal-Rengershausen,51.25492,9.468667
2165,Baunatal-Rengershausen Gl.1 Ri. Kassel,51.254913,9.468681
12875,Baunatal-Rengershausen Gl.2 Ri. Melsungen,51.254913,9.468681
2046,Baunhoej,55.63612,8.283025
11792,Bautzen,51.173096,14.428735
6791,Bautzen,51.173096,14.428735
12782,Bavendorf,53.187473,10.629537
10637,Bayerbach,48.414413,13.134451
9299,Bayerisch Eisenstein,49.12147,13.208802
11223,Bayreuth Hbf,49.949615,11.579985
12448,Bayreuth Hbf,49.949615,11.579985
12809,Bayreuth Hbf,49.949615,11.579985
1409,Bayreuth Hbf,49.949615,11.579985
1780,Bayreuth Hbf,49.949615,11.579985
2598,Bayreuth Hbf,49.949615,11.579985
4219,Bayreuth Hbf,49.949615,11.579985
296,Bayreuth-St Georgen,49.95734,11.596683
3740,Bayrischzell,47.675545,12.011157
4173,Bayrischzell,47.675545,12.011157
8368,Bayrischzell,47.675545,12.011157
12841,Bebra,50.969566,9.797788
2434,Bebra,50.969566,9.797788
3866,Bebra,50.969566,9.797788
401,Bebra,50.969566,9.797788
5801,Bebra,50.969566,9.797788
8421,Bechstedt-Trippstein,50.659733,11.168153
13185,Beckingen(Saar),49.386883,6.688021
9140,Beckingen(Saar),49.386883,6.688021
1004,Beckum-Neubeckum,51.801952,8.02136
8789,Beckum-Neubeckum,51.801952,8.02136
11045,Bedburg(Erft),50.987476,6.572615
245,Bedburg(Erft),50.987476,6.572615
4012,Beelen,51.92932,8.116159
5120,Beelen,51.92932,8.116159
6155,Beelitz Stadt,52.239395,12.96686
8688,Beelitz Stadt,52.239395,12.96686
10762,Beelitz-Heilstätten,52.262344,12.926057
9600,Beelitz-Heilstätten,52.262344,12.926057
11457,Beerfelden Hetzbach,49.5949,8.992856
5979,Beeskow,52.177685,14.250974
8506,Beeskow,52.177685,14.250974
7051,Beetz-Sommerfeld,52.80426,13.022086
6092,Behringersdorf,49.481575,11.198498
6897,Behringersdorf,49.481575,11.198498
13278,Beienheim,50.35913,8.821022
4127,Beienheim,50.35913,8.821022
8809,Beienheim,50.35913,8.821022
11217,Beilrode,51.571007,13.064935
3260,Beilrode,51.571007,13.064935
7575,Beimerstetten,48.480972,9.976835
9138,Beimerstetten,48.480972,9.976835
9409,Beldorf,54.125267,9.356217
398,Belfort-Montbéliard TGV,47.58594,6.897634
13648,Belgershain,51.233948,12.542785
7001,Belgershain,51.233948,12.542785
12659,Belleben,51.673603,11.633376
10875,Bellenberg,48.254646,10.09039
12120,Bellheim Bf,49.188305,8.29456
4518,Bellheim Bf,49.188305,8.29456
5420,Bempflingen,48.572365,9.273425
9397,Bempflingen,48.572365,9.273425
2043,Benediktbeuern,47.70912,11.403051
1190,Bengel,50.01038,7.05803
673,Bengel,50.01038,7.05803
8751,Bening,49.13819,6.828917
2595,Benneckenstein Bek_Klb 001 P1,51.67399,10.718334
12445,Benneckenstein Bek_Klb 002 P2,51.674377,10.721313
13641,Benneckenstein Bek_Klb 003 P3,51.673363,10.723139
4305,Benneckenstein Bek_Klb 004 P4,51.67139,10.723224
6757,Benneckenstein Bek_Klb 005 P5,51.670338,10.724586
8160,Benneckenstein Bek_Klb 006 P6,51.669907,10.728212
8475,Benneckenstein Bek_Klb 007 P7,51.66904,10.731591
2852,Benneckenstein Bek_Klb 008 P8,51.66805,10.734705
10629,Benneckenstein Bek_Klb 009 P9,51.664207,10.737954
9794,Benneckenstein Bek_Klb 010 P10,51.662804,10.741789
11435,Benneckenstein Bek_Klb 011 P11,51.66199,10.74686
5554,Benneckenstein Bek_Klb 012 P12,51.662727,10.752395
10113,Benneckenstein Bek_Klb 013 P13,51.662537,10.754238
7844,Benneckenstein Bek_Klb 014 P14,51.661312,10.757298
8134,Benneckenstein Bek_Klb 015 P15,51.66132,10.761837
10229,Benneckenstein Bek_Klb 016 P16,51.660126,10.765158
239,Benneckenstein Benneckenstein Gleis 1,51.673645,10.714938
2216,Benneckenstein Benneckenstein Gleis 2,51.673737,10.714884
6332,Benneckenstein Klb_Sh 001 P1,51.656265,10.760672
8103,Benneckenstein Klb_Sh 002 P2,51.651527,10.759448
10786,Benneckenstein Klb_Sh 003 P3,51.64468,10.770236
11066,Benneckenstein Klb_Sh 004 P4,51.6435,10.774466
11151,Benneckenstein Klb_Sh 005 P5,51.641815,10.774025
8427,Benneckenstein Klb_Sh 006 P6,51.643227,10.780654
5019,Benneckenstein Klb_Sh 007 P7,51.641556,10.78485
957,Benneckenstein Kälberbruch Gleis 1,51.658302,10.763974
9263,Bennemühlen,52.580994,9.726836
10148,Bennewitz,51.355927,12.70843
8244,Bennewitz,51.355927,12.70843
10619,Benningen(Neckar),48.943615,9.244504
5362,Benningen(Neckar),48.943615,9.244504
327,Bennungen,51.464005,11.122989
8207,Bennungen,51.464005,11.122989
2658,Benshausen,50.65701,10.602208
1543,Bensheim,49.681328,8.616717
1778,Bensheim,49.681328,8.616717
6469,Bensheim,49.681328,8.616717
6818,Bensheim,49.681328,8.616717
1021,Bensheim-Auerbach,49.701557,8.613366
11245,Bensheim-Auerbach,49.701557,8.613366
7406,Bensheim-Auerbach,49.701557,8.613366
1385,Bentwisch,54.11719,12.210506
8476,Bentwisch,54.11719,12.210506
10802,Beratzhausen,49.092846,11.807853
1586,Beratzhausen,49.092846,11.807853
3931,Beratzhausen,49.092846,11.807853
10807,Berbisdorf,51.186195,13.725065
12172,Berbisdorf Anbau,51.19777,13.72739
10665,Berg(Pfalz),48.980675,8.212761
13178,Berga(Elster),50.74719,12.158865
8914,Berga(Elster),50.74719,12.158865
2052,Berga-Kelbra,51.45206,11.014813
3913,Berga-Kelbra,51.45206,11.014813
1873,Bergen auf Rügen,54.4205,13.417821
6501,Bergen auf Rügen,54.4205,13.417821
9562,Bergen auf Rügen,54.4205,13.417821
7527,Bergen(Oberbay),47.82527,12.592846
8774,Bergen(Oberbay),47.82527,12.592846
3299,Bergenweiler,48.576298,10.272879
11384,Berghausen(Pfalz),49.29545,8.406173
2853,Berghausen(Pfalz),49.29545,8.406173
842,Berghausen(b Wittgenstein),51.033035,8.35001
13251,Bergheim(Erft),50.951706,6.646302
9719,Bergheim(Erft),50.951706,6.646302
7230,Bergisch Gladbach,50.991463,7.124553
11316,Bergsdorf,52.936565,13.260794
13228,Bergtheim,49.8993,10.076473
4395,Bergtheim,49.8993,10.076473
2820,Bergwitz,51.803696,12.576213
3211,Bergwitz,51.803696,12.576213
3327,Beringen Bad Bf,47.694897,8.574616
5012,Beringen Bad Bf,47.694897,8.574616
1566,Beringerfeld,47.69531,8.592771
7568,Beringerfeld,47.69531,8.592771
392,Beringhausen,51.407772,8.751414
9848,Beringstedt,54.113667,9.537501
13321,Berkenbrück,52.35719,14.165217
13521,Berkenbrück,52.35719,14.165217
4530,Berlin Alexanderplatz,52.52148,13.410961
4890,Berlin Alexanderplatz,52.52148,13.410961
11551,Berlin Friedrichstraße,52.520374,13.387206
1353,Berlin Friedrichstraße,52.520374,13.387206
1861,Berlin Friedrichstraße,52.520374,13.387206
5505,Berlin Friedrichstraße,52.520374,13.387206
12704,Berlin Gesundbrunnen,52.54896,13.388513
13404,Berlin Gesundbrunnen,52.54896,13.388513
1920,Berlin Gesundbrunnen,52.54896,13.388513
24,Berlin Gesundbrunnen,52.54896,13.388513
5446,Berlin Gesundbrunnen,52.54896,13.388513
7869,Berlin Gesundbrunnen,52.54896,13.388513
9768,Berlin Gesundbrunnen,52.54896,13.388513
10456,Berlin Hbf,52.525593,13.369545
265,Berlin Hbf,52.525593,13.369545
4999,Berlin Hbf,52.525593,13.369545
6198,Berlin Hbf,52.525593,13.369545
11480,Berlin Hbf (tief),52.525593,13.369545
11923,Berlin Hbf (tief),52.525593,13.369545
13682,Berlin Hbf (tief),52.525593,13.369545
2243,Berlin Hbf (tief),52.525593,13.369545
7546,Berlin Hbf (tief),52.525593,13.369545
7810,Berlin Hbf (tief),52.525593,13.369545
8666,Berlin Hbf (tief),52.525593,13.369545
8872,Berlin Hbf (tief),52.525593,13.369545
8930,Berlin Hbf (tief),52.525593,13.369545
5296,Berlin Jungfernheide,52.530277,13.299437
9635,Berlin Jungfernheide,52.530277,13.299437
11263,Berlin Ostbahnhof,52.510487,13.434681
11929,Berlin Ostbahnhof,52.510487,13.434681
1684,Berlin Ostbahnhof,52.510487,13.434681
6168,Berlin Ostbahnhof,52.510487,13.434681
6713,Berlin Ostbahnhof,52.510487,13.434681
12930,Berlin Ostkreuz,52.503036,13.469105
13407,Berlin Ostkreuz,52.503036,13.469105
2845,Berlin Ostkreuz,52.503036,13.469105
5811,Berlin Ostkreuz,52.503036,13.469105
6100,Berlin Ostkreuz,52.503036,13.469105
8294,Berlin Ostkreuz,52.503036,13.469105
12062,Berlin Potsdamer Platz,52.50938,13.375988
12602,Berlin Potsdamer Platz,52.50938,13.375988
2776,Berlin Potsdamer Platz,52.50938,13.375988
7930,Berlin Potsdamer Platz,52.50938,13.375988
11709,Berlin Südkreuz,52.475048,13.365319
3439,Berlin Südkreuz,52.475048,13.365319
5132,Berlin Südkreuz,52.475048,13.365319
6970,Berlin Südkreuz,52.475048,13.365319
735,Berlin Südkreuz,52.475048,13.365319
9758,Berlin Südkreuz,52.475048,13.365319
13616,Berlin Südkreuz (Ringbahn),52.476215,13.365377
8611,Berlin Südkreuz (Ringbahn),52.47581,13.365108
12716,Berlin Südkreuz (Vorortbahn),52.47614,13.365066
1426,Berlin Südkreuz (Vorortbahn),52.476097,13.365256
2831,Berlin Wannsee,52.42097,13.179528
5486,Berlin Wannsee,52.42097,13.179528
3670,Berlin Zoologischer Garten,52.50728,13.331992
4798,Berlin Zoologischer Garten,52.50728,13.331992
5593,Berlin Zoologischer Garten,52.50728,13.331992
6694,Berlin Zoologischer Garten,52.50728,13.331992
4838,Berlin-Charlottenburg,52.50421,13.30233
6327,Berlin-Charlottenburg,52.50421,13.30233
7450,Berlin-Charlottenburg,52.50421,13.30233
9111,Berlin-Charlottenburg,52.50421,13.30233
13686,Berlin-Hohenschönhausen,52.566,13.512422
2804,Berlin-Hohenschönhausen,52.566,13.512422
1231,Berlin-Karow,52.614883,13.469204
10830,Berlin-Lichtenberg,52.510136,13.496693
11959,Berlin-Lichtenberg,52.510136,13.496693
12089,Berlin-Lichtenberg,52.510136,13.496693
4,Berlin-Lichtenberg,52.510136,13.496693
4593,Berlin-Lichtenberg,52.510136,13.496693
5758,Berlin-Lichtenberg,52.510136,13.496693
8884,Berlin-Lichtenberg,52.510136,13.496693
11701,Berlin-Lichterfelde Ost,52.42945,13.328556
9607,Berlin-Lichterfelde Ost,52.42945,13.328556
12573,Berlin-Mahlsdorf,52.512108,13.611417
10691,Berlin-Schöneweide,52.455128,13.509395
4025,Berlin-Spandau,52.53465,13.196898
5322,Berlin-Spandau,52.53465,13.196898
6161,Berlin-Spandau,52.53465,13.196898
811,Berlin-Spandau,52.53465,13.196898
792,Berlin-Staaken,52.537693,13.141367
8164,Berlin-Staaken,52.537693,13.141367
7164,Bermatingen-Ahausen,47.730488,9.345157
2847,Bernau a Chiemsee,47.816483,12.380957
8704,Bernau a Chiemsee,47.816483,12.380957
2957,Bernau(b Berlin),52.675568,13.592641
9088,Bernau(b Berlin),52.675568,13.592641
151,Bernburg Hbf,51.79612,11.751455
4444,Bernburg Hbf,51.79612,11.751455
9850,Bernburg Hbf,51.79612,11.751455
396,Bernburg-Roschwitz,51.7811,11.7593
7564,Bernburg-Roschwitz,51.7811,11.7593
9637,Bernburg-Strenzfeld,51.819893,11.717645
8749,Bernburg-Waldau,51.805782,11.723312
9984,Berne,53.18378,8.475368
850,Bernried,47.861385,11.283658
12025,Bernterode,51.405464,10.479945
12339,Bernterode,51.405464,10.479945
11538,Bersenbrück,52.551243,7.942405
865,Bersenbrück,52.551243,7.942405
12899,Berthelsdorf(Erzgeb),50.87559,13.363608
6670,Berthelsdorf(Erzgebirge) Ort,50.86789,13.380147
2621,Berzhahn,50.53989,8.006031
7466,Berzhahn,50.53989,8.006031
13696,Besançon Franche-Comté TGV,47.307564,5.952675
9232,Besch,49.50439,6.372303
9813,Besch,49.50439,6.372303
13094,Besigheim,48.997723,9.136645
2432,Besigheim,48.997723,9.136645
9609,Besseringen,49.475975,6.602559
9801,Besseringen,49.475975,6.602559
10475,Bestensee,52.24213,13.63492
13528,Bestensee,52.24213,13.63492
1473,Bestwig,51.36191,8.397839
6510,Bestwig,51.36191,8.397839
7640,Bettmannsäge,48.99769,13.186274
11339,Betzdorf(LUX),49.68889,6.348989
1962,Betzdorf(Sieg),50.789295,7.87005
4483,Betzdorf(Sieg),50.789295,7.87005
5551,Betzdorf(Sieg),50.789295,7.87005
7669,Betzdorf(Sieg),50.789295,7.87005
7902,Betzdorf(Sieg),50.789295,7.87005
12072,Beucha,51.32362,12.573133
12348,Beuchow,54.36212,13.502454
5217,"Beuerbach Wartehaus",48.1456,10.915707
13086,Beuggen,47.581905,7.810915
3837,Beuggen,47.581905,7.810915
7822,Beuna(Geiseltal),51.32281,11.962762
2725,Beuren,51.37713,10.279034
8504,Beuren,51.37713,10.279034
12495,Beuron,48.04879,8.97189
1912,Beutelsbach,48.81029,9.386029
3168,Beutelsbach,48.81029,9.386029
10495,Beutersitz,51.59036,13.360724
5545,Beutersitz,51.59036,13.360724
11584,Beverungen-Wehrden,51.709614,9.382552
12647,Bexbach,49.3457,7.254456
4496,Bexbach,49.3457,7.254456
6868,Beyendorf,52.061146,11.63105
3668,Bibelöd,47.771694,12.646506
11558,Biberach Bahnhof,48.338207,8.032942
4398,Biberach Bahnhof,48.33832,8.03296
4980,Biberach Bahnhof,48.338017,8.033283
12218,Biberach(Baden),48.338387,8.032762
2917,Biberach(Baden),48.338387,8.032762
5081,Biberach(Baden),48.338387,8.032762
2461,Biberach(Riß),48.101845,9.793127
8709,Biberach(Riß),48.101845,9.793127
8927,Biberach(Riß),48.101845,9.793127
12883,Biberach(Riß) Süd,48.087017,9.803236
5285,Biberach(Riß) Süd,48.087017,9.803236
5015,Biblis,49.68888,8.450413
6261,Biblis,49.68888,8.450413
9318,Biblis,49.68888,8.450413
9646,Biblis,49.68888,8.450413
10272,Bibra,50.468758,10.444326
1738,Bichl,47.723816,11.408769
2752,Bichl,47.723816,11.408769
11771,Bichlbach Almkopfbahn,47.42763,10.776707
3576,Bichlbach-Berwang,47.421356,10.793384
5328,Bichlbach-Berwang,47.421356,10.793384
2824,Bickenbach(Bergstr),49.759632,8.603415
5156,Bickenbach(Bergstr),49.759632,8.603415
471,Biebesheim,49.78198,8.473978
8224,Biebesheim,49.78198,8.473978
268,Biedenkopf,50.909115,8.529989
7799,Biedenkopf,50.909115,8.529989
11695,Biedenkopf Campus,50.915127,8.517706
11560,Biederitz,52.15271,11.716466
528,Biederitz,52.15271,11.716466
5302,Biederitz,52.15271,11.716466
746,Biederitz,52.15271,11.716466
11340,Bielefeld Hbf,52.029263,8.532722
1300,Bielefeld Hbf,52.029263,8.532722
13112,Bielefeld Hbf,52.029263,8.532722
13400,Bielefeld Hbf,52.029263,8.532722
1623,Bielefeld Hbf,52.029263,8.532722
4183,Bielefeld Hbf,52.029263,8.532722
4675,Bielefeld Hbf,52.029263,8.532722
5154,Bielefeld Hbf,52.029263,8.532722
9168,Bielefeld Hbf,52.029263,8.532722
5418,Bielefeld Ost,52.024014,8.559416
1089,Bielefeld-Brackwede,51.99738,8.498426
11519,Bielefeld-Brackwede,51.99738,8.498426
1597,Bielefeld-Brackwede,51.99738,8.498426
2747,Bielefeld-Brackwede,51.99738,8.498426
5051,Bielefeld-Brackwede,51.99738,8.498426
9204,Bielefeld-Brackwede,51.99738,8.498426
5624,Bielefeld-Senne,51.96512,8.520335
8333,Bielefeld-Sennestadt,51.940582,8.567477
940,Bielefeld-Sennestadt,51.940582,8.567477
782,Bielefeld-Windelsbleiche,51.95701,8.531378
1446,Biendorf,51.756863,11.856411
8283,Biendorf,51.756863,11.856411
11835,Bienenbüttel,53.142128,10.484714
544,Bienenbüttel,53.142128,10.484714
1546,Bienenmühle,50.7404,13.528533
12001,Bierbach,49.26189,7.282011
11745,Bieren-Rödinghausen,52.239277,8.516964
12584,Bieringen,48.449028,8.860915
3652,Bieringen,48.449028,8.860915
11562,Biersdorf(Westerw),50.74999,7.943623
13008,Biersdorf-Ort(Ww),50.748272,7.949036
10219,Biesenthal,52.755417,13.674665
3969,Biesenthal,52.755417,13.674665
13405,Biessenhofen,47.829956,10.640467
7577,Biessenhofen,47.829956,10.640467
7920,Biessenhofen,47.829956,10.640467
8406,Biessenhofen,47.829956,10.640467
1065,Bietigheim-Bissingen,48.947933,9.137557
12115,Bietigheim-Bissingen,48.947933,9.137557
1687,Bietigheim-Bissingen,48.947933,9.137557
2990,Bietigheim-Bissingen,48.947933,9.137557
6442,Bietigheim-Bissingen,48.947933,9.137557
819,Bietigheim-Bissingen,48.947933,9.137557
10416,Bietingen,47.74402,8.738915
298,Bietingen,47.74402,8.738915
13593,Bigge,51.35828,8.475253
774,Bigge,51.35828,8.475253
13567,Bildstock,49.337326,7.094341
1640,Bildstock,49.337326,7.094341
7558,Billenhausen,48.275562,10.358162
13317,Billerbeck,51.981342,7.297482
6583,Billum st,55.61693,8.331605
7057,Bily Kostel nad Nisou,50.821194,14.917889
3927,Binau,49.37259,9.083631
4823,Binau,49.37259,9.083631
2366,Bindfelde,52.58456,11.898035
3116,Bindlach,49.98022,11.603442
7659,Bindlach,49.98022,11.603442
11289,Bingen(Rhein) Hbf,49.968727,7.884263
11926,Bingen(Rhein) Hbf,49.968727,7.884263
12353,Bingen(Rhein) Hbf,49.968727,7.884263
4615,Bingen(Rhein) Hbf,49.968727,7.884263
4677,Bingen(Rhein) Hbf,49.968727,7.884263
5041,Bingen(Rhein) Hbf,49.968727,7.884263
935,Bingen(Rhein) Hbf,49.968727,7.884263
10379,Bingen(Rhein) Stadt,49.969746,7.902985
10749,Bingen(Rhein) Stadt,49.969746,7.902985
12665,Bingen(Rhein) Stadt,49.969746,7.902985
7934,Bingen(Rhein) Stadt,49.969746,7.902985
11215,Bingen-Gaulsheim,49.96707,7.950983
9606,Bingen-Gaulsheim,49.96707,7.950983
6588,Binolen,51.371983,7.859433
8070,Binolen,51.371983,7.859433
5414,Binz LB,54.392784,13.609943
7581,Birach,48.349518,8.080366
6522,Birach Bahnhof,48.34949,8.080139
8525,Birk Centerpark st,56.125458,9.029526
7541,Birkelbach,51.020695,8.252865
3852,Birkenau,49.56104,8.708359
7254,Birkenau,49.56104,8.708359
6659,Birkenbringhausen,51.022373,8.744887
10726,Birkengrund,52.315563,13.27196
3819,Birkengrund,52.315563,13.27196
3980,Birkenwerder(b Berlin),52.688248,13.288772
6656,Birkungen,51.36631,10.330736
740,Bischheim-Gersdorf,51.228416,14.045516
1018,Bischofswerda,51.125584,14.186144
5730,Bischofswerda,51.125584,14.186144
9906,Bischofswerda,51.125584,14.186144
4568,Bischwiller,48.76552,7.851273
11625,Bisingen,48.31277,8.921035
3915,Bisingen,48.31277,8.921035
19,Bissendorf,52.522705,9.748191
8720,Bissendorf,52.522705,9.748191
12045,Bittelbronn,48.444405,8.589439
10062,Bitterfeld,51.62286,12.31685
1056,Bitterfeld,51.62286,12.31685
6559,Bitterfeld,51.62286,12.31685
871,Bitterfeld,51.62286,12.31685
8885,Bitterfeld,51.62286,12.31685
9653,Bitterfeld,51.62286,12.31685
3313,Blaibach(Oberpf),49.16403,12.807925
9498,Blaichach(Allgäu),47.54374,10.258796
9763,Blaichach(Allgäu),47.54374,10.258796
6434,Blankenbach,50.065205,9.230064
11259,Blankenberg(Meckl),53.772305,11.71529
6473,Blankenberg(Meckl),53.772305,11.71529
11512,Blankenberg(Sieg),50.768475,7.348499
4318,Blankenberg(Sieg),50.768475,7.348499
7345,Blankenburg(Harz),51.795822,10.961184
1785,Blankenfelde(Teltow-Fläming),52.33721,13.415982
1859,Blankenfelde(Teltow-Fläming),52.33721,13.415982
11438,Blankenloch,49.06653,8.464729
13664,Blankenloch,49.06653,8.464729
3700,Blankenloch,49.06653,8.464729
11833,Blankensee(Meckl),53.408173,13.262907
4137,Blankenstein(Saale),50.40114,11.69806
12022,Blaubeuren,48.403816,9.791979
7413,Blaubeuren,48.403816,9.791979
13506,Blaufelden,49.296234,9.96768
2044,Blaufelden,49.296234,9.96768
13494,Blaustein,48.414597,9.919326
4080,Blaustein,48.414597,9.919326
3517,Blechhammer(Thür),50.396835,11.203156
8905,Blechhammer(Thür),50.396835,11.203156
3055,Bleibach,48.124092,8.004777
10626,Bleibach Bahnhof,48.123955,8.004852
12235,Bleichenbach(Oberh),50.320335,9.051582
10594,Bleicherode Ost,51.453175,10.608882
6782,Bleicherode Ost,51.453175,10.608882
7821,Blens,50.660248,6.486442
4208,Blieskastel-Lautzkirchen,49.24919,7.258191
13284,Blindheim,48.645096,10.617933
9608,Blindheim,48.645096,10.617933
6982,Blumberg(b Berlin),52.605232,13.611772
10999,Blumberg-Rehhahn,52.596622,13.591948
6585,Blumberg-Riedöschingen,47.85554,8.607543
1602,Blumberg-Zollhaus,47.8378,8.557175
5197,Blumenau,50.67124,13.291014
13460,Blumenhagen,53.528328,13.87204
9083,Blumenhagen,53.528328,13.87204
7885,Blumenthal(Mark),53.076515,12.334096
1512,Blönsdorf,51.95541,12.895568
913,Blönsdorf,51.95541,12.895568
1117,Bobenheim,49.58814,8.35032
2632,Bobenheim,49.58814,8.35032
9376,Bobenheim,49.58814,8.35032
11673,Bobingen,48.266373,10.837891
12935,Bobingen,48.266373,10.837891
4248,Bobingen,48.266373,10.837891
7649,Bobingen,48.266373,10.837891
3047,Bobitz,53.804535,11.3628
4603,Bobstadt,49.66325,8.451786
7457,Bobstadt,49.66325,8.451786
9787,Bochnia,49.9773,20.430775
11662,Bochum Hbf,51.478607,7.223275
13147,Bochum Hbf,51.478607,7.223275
3049,Bochum Hbf,51.478607,7.223275
3540,Bochum Hbf,51.478607,7.223275
3730,Bochum Hbf,51.478607,7.223275
5105,Bochum Hbf,51.478607,7.223275
5861,Bochum Hbf,51.478607,7.223275
6618,Bochum Hbf,51.478607,7.223275
8521,Bochum Hbf,51.478607,7.223275
4734,Bochum West,51.48146,7.211223
484,Bochum-Dahlhausen,51.426357,7.140842
6079,Bochum-Dahlhausen,51.426357,7.140842
11077,Bochum-Ehrenfeld,51.47212,7.20915
9691,Bochum-Ehrenfeld,51.47212,7.20915
4349,Bochum-Hamme,51.491486,7.200935
1099,Bochum-Langendreer,51.477993,7.323645
2878,Bochum-Langendreer,51.477993,7.323645
12479,Bochum-Langendreer West,51.47803,7.304327
27,Bochum-Langendreer West,51.47803,7.304327
242,Bochum-Riemke,51.5178,7.205275
6957,Bochum-Riemke,51.5178,7.205275
1337,Bockenheim-Kindenheim,49.606953,8.188033
7158,Bockschaft Ortsmitte,49.20342,8.967064
12702,Bodelsberg,47.678112,10.411092
12280,Bodelshausen,48.38337,8.990601
11595,Bodenburg,52.03112,10.00133
10515,Bodenfelde,51.63721,9.561667
2800,Bodenfelde,51.63721,9.561667
3514,Bodenfelde,51.63721,9.561667
11781,Bodenheim,49.929585,8.312491
6000,Bodenheim,49.929585,8.312491
7074,Bodenheim,49.929585,8.312491
8683,Bodenheim,49.929585,8.312491
8912,Bodenmais,49.07042,13.101078
545,Bodenrode,51.393528,10.20855
7396,Bodenrode,51.393528,10.20855
1045,Bodenwöhr Nord,49.27838,12.325948
12673,Bodenwöhr Nord,49.27838,12.325948
4995,Bogen,48.910595,12.686141
11962,Bohmte,52.361633,8.307525
3844,Bohmte,52.361633,8.307525
5880,Bohumin,49.90073,18.359444
6960,Bohumin(Gr),49.916576,18.322226
11615,Boisheim,51.274323,6.274591
5524,Boizenburg(Elbe),53.37806,10.754279
9068,Boizenburg(Elbe),53.37806,10.754279
3259,Bokholt,53.786106,9.716843
389,Bologna Centrale,44.50614,11.343411
10585,Bondorf(b Herrenberg),48.523552,8.827662
11554,Bondorf(b Herrenberg),48.523552,8.827662
7401,Bondorf(b Herrenberg),48.523552,8.827662
11576,Bonn Hbf,50.73201,7.097136
157,Bonn Hbf,50.73201,7.097136
2991,Bonn Hbf,50.73201,7.097136
324,Bonn Hbf,50.73201,7.097136
3875,Bonn Hbf,50.73201,7.097136
473,Bonn Hbf,50.73201,7.097136
3589,Bonn Helmholtzstraße,50.721844,7.052615
3682,Bonn Helmholtzstraße,50.721844,7.052615
1102,Bonn UN Campus,50.71454,7.11801
7332,Bonn UN Campus,50.71454,7.11801
3100,Bonn-Bad Godesberg,50.683926,7.159555
3386,Bonn-Bad Godesberg,50.683926,7.159555
11686,Bonn-Beuel,50.738476,7.127657
12317,Bonn-Beuel,50.738476,7.127657
7958,Bonn-Beuel,50.738476,7.127657
11180,Bonn-Duisdorf,50.716476,7.042548
3932,Bonn-Duisdorf,50.716476,7.042548
10813,Bonn-Endenich Nord,50.73559,7.062211
5020,Bonn-Endenich Nord,50.73559,7.062211
5398,Bonn-Mehlem,50.66915,7.181342
8174,Bonn-Mehlem,50.66915,7.181342
637,Bonn-Oberkassel,50.715073,7.1593
851,Bonn-Oberkassel,50.715073,7.1593
12267,Bookholzberg,53.099113,8.532556
9121,Bookholzberg,53.099113,8.532556
2121,Boostedt,54.01774,10.0162
1039,Bopfingen,48.855152,10.351707
11160,Bopfingen,48.855152,10.351707
10248,Boppard Hbf,50.231415,7.586102
11679,Boppard Hbf,50.231415,7.586102
12490,Boppard Hbf,50.231415,7.586102
12723,Boppard Hbf,50.231415,7.586102
972,Boppard Süd,50.230198,7.595521
3421,Boppard-Bad Salzig,50.20525,7.635481
7998,Boppard-Bad Salzig,50.20525,7.635481
2981,Boppard-Buchholz,50.2108,7.554876
4779,Boppard-Fleckertshöhe,50.197926,7.577889
6445,Boppard-Fleckertshöhe,50.197926,7.577889
6886,Boppard-Hirzenach,50.175076,7.648436
7599,Boppard-Hirzenach,50.175076,7.648436
1578,Bordesholm,54.174374,10.043711
9875,Bordesholm,54.174374,10.043711
3929,Bording st,56.146744,9.278222
8813,Borgholzhausen,52.085228,8.266579
2171,Bork(Westf),51.66933,7.456308
12663,Borken(Hess),51.050686,9.277
439,Borken(Hess),51.050686,9.277
8034,Borken(Hess),51.050686,9.277
13507,Borken(Westf),51.84896,6.865279
8637,Borkheide,52.230774,12.854413
9613,Borkheide,52.230774,12.854413
2574,Borkum Flugplatz,53.598568,6.702224
10870,Borna(Leipzig),51.117928,12.486291
1092,Borna(Leipzig),51.117928,12.486291
13626,Borna(Leipzig),51.117928,12.486291
568,Borsdorf(Hess),50.42941,8.975223
12003,Borsdorf(Sachs),51.345703,12.541165
279,Borsdorf(Sachs),51.345703,12.541165
6264,Borsdorf(Sachs),51.345703,12.541165
11256,Bottrop Hbf,51.50945,6.936684
1904,Bottrop Hbf,51.50945,6.936684
9992,Bottrop Hbf,51.50945,6.936684
1419,Bottrop-Vonderort,51.501728,6.912294
7909,Boulevarden st,55.62385,8.459927
1796,Bous(Saar),49.275978,6.792639
2082,Bous(Saar),49.275978,6.792639
6674,Boxberg-Wölchingen,49.485596,9.640048
11934,Brachbach,50.821987,7.941492
4324,Brachbach,50.821987,7.941492
7756,Brachelen,51.007824,6.231463
9414,Brachelen,51.007824,6.231463
2438,Brahlstorf,53.36442,10.951992
5116,Brahlstorf,53.36442,10.951992
11221,Brake(Unterweser),53.328815,8.48135
11334,Brake(b Bielefeld),52.069653,8.604914
8957,Brake(b Bielefeld),52.069653,8.604914
49,Brakel(Höxter),51.712166,9.1832
8318,Brakel(Höxter),51.712166,9.1832
3239,Bramming st,55.46451,8.706777
6436,Bramsche,52.410877,7.975007
8234,Bramsche,52.410877,7.975007
428,Bramstedt(b Syke),52.871613,8.786024
5354,Bramstedt(b Syke),52.871613,8.786024
11333,Brand Tropical Islands,52.029953,13.72149
3406,Brand Tropical Islands,52.029953,13.72149
44,Brand Tropical Islands,52.029953,13.72149
2577,Brandenburg Altstadt,52.4117,12.530347
10136,Brandenburg Hbf,52.400555,12.566138
201,Brandenburg Hbf,52.400555,12.566138
6371,Brandenburg Hbf,52.400555,12.566138
8085,Brandenburg Hbf,52.400555,12.566138
9304,Brandenburg Hbf,52.400555,12.566138
10508,Brandoberndorf,50.43162,8.493816
2583,Brannenburg,47.741356,12.106464
9058,Brannenburg,47.741356,12.106464
78,Braubach,50.27414,7.643187
8909,Braubach,50.27414,7.643187
4056,Braunsbedra,51.28878,11.884594
4628,Braunsbedra,51.28878,11.884594
4147,Braunsbedra Ost,51.289967,11.902683
10340,Braunschweig Hbf,52.252216,10.540295
11286,Braunschweig Hbf,52.252216,10.540295
11383,Braunschweig Hbf,52.252216,10.540295
1194,Braunschweig Hbf,52.252216,10.540295
12685,Braunschweig Hbf,52.252216,10.540295
13643,Braunschweig Hbf,52.252216,10.540295
13684,Braunschweig Hbf,52.252216,10.540295
5644,Braunschweig Hbf,52.252216,10.540295
6257,Braunschweig Hbf,52.252216,10.540295
641,Braunschweig Hbf,52.252216,10.540295
7329,Braunschweig Hbf,52.252216,10.540295
8165,Braunschweig Hbf,52.252216,10.540295
9059,Braunschweig Hbf,52.252216,10.540295
12629,Braunschweig-Gliesmarode,52.275723,10.551499
2418,Braunsdorf-Lichtenwalde,50.879776,13.011854
3164,Breclav,48.7539,16.893236
6406,Breclav(Gr),48.71255,16.868402
5204,Breddin,52.886047,12.224216
8197,Breddin,52.886047,12.224216
3974,Bredebro st,55.056896,8.823061
10290,Bredelar,51.41917,8.776566
12192,Bredenbek,54.315113,9.867004
10732,Bredstedt,54.621166,8.970336
4680,Bredstedt,54.621166,8.970336
6372,Brehna,51.554382,12.221754
9028,Brehna,51.554382,12.221754
7153,Breisach,48.026917,7.58935
7666,Breisach,48.026917,7.58935
9483,Breisach,48.026917,7.58935
7403,Breisach Bahnhof,48.026886,7.589569
12420,Breitenbrunn(Erzg),50.47708,12.746053
7206,Breitenbrunn(Schwab),48.138584,10.408505
4225,Breitendiel,49.691383,9.225052
12941,Breitendorf,51.138653,14.622726
2435,Breitendorf,51.138653,14.622726
2737,Breitengüßbach,49.96683,10.887135
6326,Breitengüßbach,49.96683,10.887135
10775,"Breitscheidt(Altenkirchen Ww)",50.748436,7.661486
4268,"Breitscheidt(Altenkirchen Ww)",50.748436,7.661486
10520,Breitungen(Werra),50.752476,10.32223
10722,Bremen Hbf,53.08348,8.813834
11574,Bremen Hbf,53.08348,8.813834
12124,Bremen Hbf,53.08348,8.813834
12785,Bremen Hbf,53.08348,8.813834
12789,Bremen Hbf,53.08348,8.813834
12922,Bremen Hbf,53.08348,8.813834
13320,Bremen Hbf,53.08348,8.813834
5065,Bremen Hbf,53.08348,8.813834
6359,Bremen Hbf,53.08348,8.813834
6388,Bremen Hbf,53.08348,8.813834
6945,Bremen Hbf,53.08348,8.813834
7633,Bremen Hbf,53.08348,8.813834
8200,Bremen Hbf,53.08348,8.813834
8500,Bremen Hbf,53.08348,8.813834
9574,Bremen Hbf,53.08348,8.813834
10728,Bremen Kreinsloger,53.18878,8.557846
12099,Bremen Mühlenstraße,53.18521,8.57134
11922,Bremen Neustadt,53.075783,8.785808
4773,Bremen Neustadt,53.075783,8.785808
2167,Bremen Turnerstraße,53.193237,8.545403
13355,Bremen-Aumund,53.185226,8.617338
8958,Bremen-Blumenthal,53.183636,8.58118
10120,Bremen-Burg,53.16029,8.704773
12579,Bremen-Burg,53.16029,8.704773
2751,Bremen-Burg,53.16029,8.704773
6622,Bremen-Burg,53.16029,8.704773
8843,Bremen-Farge,53.2052,8.516602
12712,Bremen-Hemelingen,53.054573,8.886759
4170,Bremen-Hemelingen,53.054573,8.886759
13276,Bremen-Lesum,53.170715,8.686152
312,Bremen-Lesum,53.170715,8.686152
8901,Bremen-Mahndorf,53.03976,8.944627
9248,Bremen-Mahndorf,53.03976,8.944627
3574,Bremen-Oberneuland,53.087036,8.938511
9764,Bremen-Oberneuland,53.087036,8.938511
3285,Bremen-Oslebshausen,53.1353,8.740801
5931,Bremen-Oslebshausen,53.1353,8.740801
11444,Bremen-Schönebeck,53.1728,8.649481
11602,Bremen-Schönebeck,53.1728,8.649481
5044,Bremen-Sebaldsbrück,53.061356,8.887383
906,Bremen-Sebaldsbrück,53.061356,8.887383
10449,Bremen-St Magnus,53.17158,8.669732
1489,Bremen-St Magnus,53.17158,8.669732
10373,Bremen-Vegesack,53.169716,8.629968
4111,Bremen-Vegesack,53.169716,8.629968
3603,Bremen-Walle,53.10379,8.786241
5280,Bremen-Walle,53.10379,8.786241
1464,Bremerhaven Hbf,53.534912,8.599555
5090,Bremerhaven Hbf,53.534912,8.599555
6107,Bremerhaven Hbf,53.534912,8.599555
8671,Bremerhaven Hbf,53.534912,8.599555
4541,Bremerhaven-Lehe,53.566322,8.600657
693,Bremerhaven-Lehe,53.566322,8.600657
2476,Bremerhaven-Wulsdorf,53.508595,8.611934
7475,Bremerhaven-Wulsdorf,53.508595,8.611934
11142,Bremervörde,53.482952,9.140251
11870,Bremervörde,53.482952,9.140251
6874,Bremervörde,53.482952,9.140251
5654,Brenk,50.43244,7.168888
12880,Brescia,45.532158,10.212869
12505,Brest-Aspe,53.460587,9.382342
10689,Breternitz,50.61631,11.405863
4554,Breternitz,50.61631,11.405863
1198,Bretleben,51.340744,11.240839
7573,Bretleben,51.340744,11.240839
5372,Brettorf,52.96713,8.44697
12383,Bretzenheim(Nahe),49.874588,7.898692
6946,Bretzenheim(Nahe),49.874588,7.898692
418,Bretzfeld,49.17274,9.440302
2355,Breyell,51.294617,6.241174
4849,Breyell,51.294617,6.241174
5438,Brieselang,52.58255,13.001394
7567,Brieselang,52.58255,13.001394
9725,Brieselang,52.58255,13.001394
10684,Briesen(Mark),52.34653,14.280635
6430,Briesen(Mark),52.34653,14.280635
1156,Brigachtal Kirchdorf,48.014343,8.467807
3631,Brigachtal Kirchdorf,48.014343,8.467807
3413,Brigachtal Klengen,48.007366,8.465779
4439,Brigachtal Klengen,48.007366,8.465779
11319,Brilon Stadt,51.39906,8.575287
1661,Brilon Wald,51.34916,8.576073
5474,Brilon Wald,51.34916,8.576073
6345,Brilon Wald,51.34916,8.576073
6560,Brilon Wald,51.34916,8.576073
9534,Britz,52.87327,13.821106
8634,Brockhöfe,53.002117,10.258499
1967,Broderstorf,54.078915,12.262763
1956,Broens st,55.19469,8.740748
2978,Brohl,50.48143,7.332639
4243,Brohl,50.48143,7.332639
11328,Brohl(Brohltalbahn),50.480873,7.332053
2085,Brokstedt,53.990086,9.823806
6908,Brokstedt,53.990086,9.823806
589,Bruchenbrücken,50.301964,8.788402
7650,Bruchenbrücken,50.301964,8.788402
10254,Bruchhausen(b Ettlingen),48.923992,8.373975
6805,Bruchhausen(b Ettlingen),48.923992,8.373975
10276,Bruchköbel,50.186188,8.919293
5753,Bruchköbel,50.186188,8.919293
1259,Bruchmühlbach-Miesau,49.38534,7.443979
13554,Bruchmühlbach-Miesau,49.38534,7.443979
10038,Bruchmühlen,52.204597,8.448636
5977,Bruchmühlen,52.204597,8.448636
1217,Bruchsal,49.124622,8.589649
13113,Bruchsal,49.124622,8.589649
7966,Bruchsal,49.124622,8.589649
9154,Bruchsal,49.124622,8.589649
9379,Bruchsal,49.124622,8.589649
4784,Bruchsal Am Mantel,49.141182,8.56327
9980,Bruchsal Am Mantel,49.141182,8.56327
4114,Bruchsal Bildungszentrum,49.110348,8.574507
4793,Bruchsal Bildungszentrum,49.110348,8.574507
1291,Bruchsal Sportzentrum,49.135445,8.589941
2962,Bruchsal Sportzentrum,49.135445,8.589941
6391,Bruckberg,48.51598,11.997782
9266,Bruckberg,48.51598,11.997782
9099,Brucken,48.573917,9.453061
765,Bruckmühl,47.88082,11.915531
7889,Bruckmühl,47.88082,11.915531
12391,Brugg AG,47.48086,8.208845
3104,Brugg AG,47.48086,8.208845
6423,Brunau-Packebusch,52.751274,11.484586
8028,Brunau-Packebusch,52.751274,11.484586
4000,Brunnen(Oberbay),48.629158,11.2981
2797,Bruxelles Midi,50.835377,4.335694
11729,Bruxelles-Nord,50.860237,4.361454
8757,Bruxelles-Nord,50.860237,4.361454
7732,Brzeg,50.85297,17.471178
6669,Brzesko Okocim,49.986397,20.6103
9390,Bräunlingen Bahnhof,47.931873,8.457104
2019,Bräunlingen Industriegebiet,47.928337,8.470812
6241,Brötzingen Mitte,48.889465,8.667027
7900,Brötzingen Mitte,48.889465,8.667027
1390,Brück(Mark),52.186794,12.758467
5772,Brück(Mark),52.186794,12.758467
3936,Brügge(Prign),53.256287,12.229208
1949,Brühl,50.82925,6.912718
3957,Brühl,50.82925,6.912718
6450,Brühl,50.82925,6.912718
12117,Brühl-Kierberg,50.838196,6.888375
12913,Brühl-Kierberg,50.838196,6.888375
2190,Bubach,49.411022,6.94821
12667,Bubenreuth,49.629543,11.011994
1938,Bubenreuth,49.629543,11.011994
10319,Buchbrunn-Mainstockheim,49.763283,10.145179
4275,Buchbrunn-Mainstockheim,49.763283,10.145179
4597,Buchen Ost,49.519154,9.332137
1110,Buchen(Odenw),49.52353,9.327179
7673,Buchen(Odenw),49.52353,9.327179
13481,Buchenau(Lahn),50.870544,8.600525
1582,Buchenau(Lahn),50.870544,8.600525
10134,Buchenau(Oberbay),48.16028,11.224497
1675,Buchenau(Oberbay),48.16028,11.224497
8540,Buchenau(Oberbay),48.16028,11.224497
13724,Buchenhain,48.031254,11.497442
8011,Buchenhorst,54.26821,12.712682
8051,Buchholz Bahnhof,48.083576,7.915236
4136,Buchholz(Baden),48.08358,7.915166
4276,Buchholz(Nordheide),53.324684,9.876266
5658,Buchholz(Nordheide),53.324684,9.876266
8010,Buchholz(Nordheide),53.324684,9.876266
11134,Buchholz(Zauche),52.167576,12.922416
12358,Buchloe,48.033722,10.716217
443,Buchloe,48.033722,10.716217
4445,Buchloe,48.033722,10.716217
6122,Buchloe,48.033722,10.716217
7143,Buchloe,48.033722,10.716217
7390,Buckow(Beeskow),52.18818,14.169507
9303,Budapest-Déli,47.498535,19.025288
5321,Budapest-Keleti,47.50038,19.085072
11331,Buddenhagen,54.00156,13.68228
13718,Budenheim,50.026836,8.174062
8075,Budenheim,50.026836,8.174062
6242,Bufleben,50.99768,10.709057
7122,Buggingen,47.855255,7.628161
9866,Buggingen,47.855255,7.628161
4567,Buir,50.8624,6.574514
6356,Buir,50.8624,6.574514
5940,Buldern,51.863052,7.370479
6471,Buldern,51.863052,7.370479
1786,Bullay(DB),50.05446,7.134584
3956,Bullay(DB),50.05446,7.134584
4515,Bullay(DB),50.05446,7.134584
5431,Bullay(DB),50.05446,7.134584
7532,Bullay(DB),50.05446,7.134584
12765,Burbach Mitte,49.24361,6.944932
8982,Burbach Mitte,49.24361,6.944932
10795,Burbach(Kr Siegen),50.748966,8.077808
9056,Burbach(Kr Siegen),50.748966,8.077808
9983,Burg Stargard(Meckl),53.49959,13.303225
5122,Burg(Dillkr) Nord,50.699883,8.307686
5462,Burg(Dillkr) Nord,50.699883,8.307686
11963,Burg(Dithm),54.00797,9.250087
9682,Burg(Dithm),54.00797,9.250087
13658,Burg(Magdeburg),52.274406,11.840356
13712,Burg(Magdeburg),52.274406,11.840356
628,Burg(Magdeburg),52.274406,11.840356
11099,Burg-u. Nieder Gemünden,50.691113,9.047604
4756,Burgau(Schwab),48.424797,10.427012
6135,Burgau(Schwab),48.424797,10.427012
9679,Burgau(Schwab),48.424797,10.427012
7300,Burgbernheim,49.454323,10.320221
12639,Burgbernheim-Wildbad,49.443295,10.312317
1789,Burgbernheim-Wildbad,49.443295,10.312317
5079,Burgbrohl,50.457855,7.283775
11871,Burgdorf,52.448708,10.002837
2535,Burgdorf,52.448708,10.002837
3373,Burghaun(Hünfeld),50.70055,9.727953
4188,Burghaun(Hünfeld),50.70055,9.727953
13018,Burghausen,48.1742,12.828182
13324,Burgheim,48.70105,11.026984
1341,Burgheim,48.70105,11.026984
3795,Burgholzhausen v d H,50.257793,8.677106
282,Burgkemnitz,51.68882,12.407167
3136,Burgkemnitz,51.68882,12.407167
5163,Burgkemnitz,51.68882,12.407167
12416,Burgkirchen,48.16691,12.727783
2979,Burgkunstadt,50.137657,11.242723
9665,Burgkunstadt,50.137657,11.242723
12202,Burglauer,50.27434,10.184441
11852,Burgsinn,50.15032,9.656067
1883,Burgsinn,50.15032,9.656067
11191,Burgstall(Murr),48.928646,9.369932
3217,Burgstädt,50.915817,12.812707
9774,Burgstädt,50.915817,12.812707
11124,Burgthann,49.342476,11.309307
11220,Burgthann,49.342476,11.309307
11157,Burhafe(Ostfriesl),53.606556,7.711074
1841,Burkhardswalde-Maxen,50.925144,13.838369
12035,Burkhardtsdorf,50.733196,12.932137
8404,Burkhardtsdorf Mitte,50.732937,12.916276
2771,Burkheim-Bischoffingen,48.104008,7.611766
12643,Burkheim-Bischoffingen Bf,48.103992,7.611839
3496,Burladingen,48.290054,9.113057
10897,Burladingen West,48.29227,9.099292
5125,Buschmühle,50.825928,13.689158
11839,Buschow,52.5922,12.628996
7894,Buschow,52.5922,12.628996
6181,Buttenheim,49.799397,11.01373
8272,Buttenheim,49.799397,11.01373
1987,Buttstädt,51.126995,11.418412
10468,Butzbach,50.431156,8.669517
10499,Butzbach,50.431156,8.669517
11103,Butzbach,50.431156,8.669517
773,Butzbach,50.431156,8.669517
10070,Buxtehude,53.47049,9.688314
422,Buxtehude,53.47049,9.688314
7443,Buxtehude,53.47049,9.688314
7778,Buxtehude,53.47049,9.688314
11120,Bärenhecke-Johnsbach,50.827164,13.772021
2729,Bärenklau,52.704044,13.143526
6817,"Bärenstein(b Glashütte Sachs)",50.809727,13.794728
2372,Bärnsdorf,51.166767,13.72074
7277,Bäumenheim,48.680332,10.809972
8459,Bäumenheim,48.680332,10.809972
2169,Böbingen(Rems),48.822437,9.912807
3827,Böbingen(Rems),48.822437,9.912807
11599,Böblingen,48.68776,9.004128
13708,Böblingen,48.68782,9.004695
2746,Böblingen,48.68776,9.004128
3230,Böblingen,48.68776,9.004128
5586,Böblingen,48.68776,9.004128
8780,Böblingen,48.68776,9.004128
10193,Böblingen Danziger Straße,48.67924,8.996628
12384,Böblingen Danziger Straße,48.678757,8.997755
1589,Böblingen Heusteigstraße,48.67566,9.02574
2799,Böblingen Südbahnhof,48.67728,9.010288
6399,Böblingen Zimmerschlag,48.670273,9.035133
6991,Böblingen Zimmerschlag,48.67026,9.035214
13048,Bödigheim,49.47593,9.317207
1477,Bödigheim,49.47593,9.317207
10166,Böhl-Iggelheim,49.37983,8.303602
9096,Böhl-Iggelheim,49.37983,8.303602
3815,Böhlen Werke,51.184704,12.384024
8212,Böhlen Werke,51.184704,12.384024
4232,Böhlen(Leipzig),51.203037,12.381991
4616,Böhlen(Leipzig),51.203037,12.381991
7502,Böhmhof,49.0521,13.11088
12221,Böhringen-Rickelshausen,47.748734,8.926651
8266,Böhringen-Rickelshausen,47.748734,8.926651
8871,Bölzke,53.107384,12.269615
12542,Bönen,51.598015,7.757296
8605,Bönen,51.598015,7.757296
13146,Bönen-Nordbögge,51.615707,7.7422
5519,Bönen-Nordbögge,51.615707,7.7422
5390,Bönningstedt,53.663395,9.910243
12556,Börnecke(Harz),51.81968,10.995759
11992,Börßum,52.060463,10.568935
13222,Börßum,52.060463,10.568935
9025,Bösdorf(Sachs-Anh),52.4221,11.064149
12828,Bösperde,51.45894,7.774233
8632,Bösperde,51.45894,7.774233
11361,Bötzingen,48.070175,7.721616
9553,Bötzingen Mühle,48.075554,7.727931
10516,Büchen,53.47497,10.623298
11054,Büchen,53.47497,10.623298
3454,Büchen,53.47497,10.623298
7027,Büchen,53.47497,10.623298
7974,Büchen,53.47497,10.623298
8880,Büchen,53.47497,10.623298
12175,Büchenbach,49.267765,11.074192
9395,Büchenbach,49.267765,11.074192
5228,Büches-Düdelsheim,50.29737,9.066751
11106,Bückeburg,52.26766,9.047536
9596,Bückeburg,52.26766,9.047536
3617,Büdingen(Oberhess),50.28887,9.102598
4506,Büdingen(Oberhess),50.28887,9.102598
12918,Büdingen(Westerw),50.62475,7.895901
32,Bühl(Baden),48.696674,8.129299
9141,Bühl(Baden),48.696674,8.129299
6751,Bülzig,51.894894,12.752715
8221,Bülzig,51.894894,12.752715
6441,Bünde(Westf),52.202076,8.573876
6494,Bünde(Westf),52.202076,8.573876
7805,Bünde(Westf),52.202076,8.573876
2966,Bürgeln,50.85375,8.817194
6746,Bürgeln,50.85375,8.817194
10016,Bürstadt,49.645126,8.459072
3615,Bürstadt,49.645126,8.459072
5691,Bürstadt,49.645126,8.459072
6175,Bürstadt,49.645126,8.459072
3240,Büsenbachtal,53.269596,9.858592
4277,Büsum,54.133823,8.867113
1140,Büttgen,51.19721,6.605785
4588,Büttgen,51.19721,6.605785
10743,Bützow,53.837112,11.998194
4054,Bützow,53.837112,11.998194
8759,Bützow,53.837112,11.998194
13420,Cadolzburg,49.460648,10.863611
9231,Cainsdorf,50.686558,12.496565
9542,Cainsdorf,50.686558,12.496565
2394,Calau(Nl),51.738117,13.97982
4589,Calau(Nl),51.738117,13.97982
8426,Calau(Nl),51.738117,13.97982
9863,Calau(Nl),51.738117,13.97982
11832,Calbe(Saale) Ost,51.920692,11.810527
12585,Calbe(Saale) Ost,51.920692,11.810527
2259,Calbe(Saale) Ost,51.920692,11.810527
11401,Calbe(Saale) Stadt,51.91388,11.776342
5085,Calbe(Saale) West,51.905693,11.758783
3935,Calberlah,52.42756,10.624914
4711,Calberlah,52.42756,10.624914
10969,Calden-Fürstenwald Gl.1 Ri. Kassel,51.380554,9.360085
4273,Calden-Fürstenwald Gl.1 Ri.Wolfhagen,51.380554,9.360085
9965,Caldern,50.85297,8.670244
11219,Calw,48.714684,8.741854
5314,Camburg(Saale),51.050858,11.70468
7286,Camburg(Saale),51.050858,11.70468
8016,Cammin(Meckl),53.439034,13.299645
10657,Capelle(Westf),51.735268,7.61108
11476,Capelle(Westf),51.735268,7.61108
8079,Caputh Schwielowsee,52.340977,12.980368
1256,Caputh-Geltow,52.350296,12.984406
7245,Casekow,53.213615,14.208187
2408,Castrop-Rauxel Hbf,51.573524,7.30398
2993,Castrop-Rauxel Hbf,51.573524,7.30398
11196,Castrop-Rauxel Süd,51.5503,7.310186
2784,Castrop-Rauxel Süd,51.5503,7.310186
5799,Castrop-Rauxel-Merklinde,51.52793,7.324314
7021,Castrop-Rauxel-Merklinde,51.52793,7.324314
10342,Celle,52.620457,10.062468
11980,Celle,52.620457,10.062468
13197,Celle,52.620457,10.062468
6962,Celle,52.620457,10.062468
7880,Celle,52.620457,10.062468
1266,Ceska Kubice,49.374557,12.865142
9211,Chalon sur Saône,46.78174,4.843393
12340,Chalupki,49.925476,18.311562
10058,Cham(Oberpf),49.22187,12.656832
2179,Cham(Oberpf),49.22187,12.656832
7688,Cham(Oberpf),49.22187,12.656832
9943,Cham(Oberpf),49.22187,12.656832
7198,Chamerau,49.196716,12.745258
8304,Cheb,50.07349,12.380697
8163,Cheb(Gr),50.086975,12.253503
8013,Cheb-Skalka,50.07398,12.348341
5899,Chemnitz Alt Chemnitz Center,50.796375,12.917936
999,Chemnitz Annenstraße,50.82875,12.922933
7385,Chemnitz Bernsbachplatz,50.825005,12.9269
6780,Chemnitz Erdmannsdorfer Straße,50.81121,12.911969
7928,Chemnitz Erfenschlag,50.7876,12.950184
11682,Chemnitz Friedrichstraße,50.772854,12.919367
10209,Chemnitz Gustav-Freytag-Straße,50.825596,12.920266
1041,Chemnitz Hbf,50.839695,12.930877
11141,Chemnitz Hbf,50.839695,12.930877
12403,Chemnitz Hbf,50.839695,12.930877
12480,Chemnitz Hbf,50.839695,12.930877
1759,Chemnitz Hbf,50.839695,12.930877
4105,Chemnitz Hbf,50.839695,12.930877
6025,Chemnitz Hbf,50.839695,12.930877
7091,Chemnitz Hbf,50.839695,12.930877
7693,Chemnitz Hbf,50.839695,12.930877
775,Chemnitz Hbf,50.839695,12.930877
802,Chemnitz Hbf,50.839695,12.930877
8147,Chemnitz Hbf,50.839695,12.930877
9417,Chemnitz Hbf,50.839695,12.930877
4637,Chemnitz Hbf (Bahnhofstraße),50.838223,12.929189
10831,Chemnitz Kinderwaldstätte,50.884212,12.953568
9871,Chemnitz Kinderwaldstätte,50.884212,12.953568
1620,Chemnitz Küchwald,50.85505,12.912197
2692,Chemnitz Mitte,50.82663,12.912587
391,Chemnitz Moritzhof,50.82976,12.919931
11454,Chemnitz Omnibusbahnhof,50.840828,12.926391
2564,Chemnitz Riemenschneiderstraße,50.785385,12.925472
8109,Chemnitz Rosenbergstraße,50.817898,12.929305
13301,Chemnitz Roter Turm,50.83451,12.923074
5198,Chemnitz Rösslerstraße,50.8169,12.91413
5407,Chemnitz Scheffelstraße,50.80228,12.911337
8142,Chemnitz Schneeberger Straße,50.794228,12.922046
13411,Chemnitz Schule Altchemnitz,50.798923,12.913104
4253,Chemnitz Stadlerplatz,50.821175,12.927087
4442,Chemnitz Süd,50.823765,12.926188
13534,Chemnitz TU Campus,50.8137,12.930901
5752,Chemnitz Technopark,50.811497,12.924603
5826,Chemnitz Theaterplatz,50.83731,12.925727
6127,Chemnitz Treffurthstraße,50.819496,12.915314
7586,Chemnitz Uhlestraße,50.806072,12.911852
6562,Chemnitz Zentralhaltestelle,50.831627,12.922264
9297,Chemnitz-Altchemnitz,50.790913,12.925898
10643,Chemnitz-Borna Hp,50.859867,12.894459
8044,Chemnitz-Borna Hp,50.859867,12.894459
8398,Chemnitz-Erfenschlag Ost,50.78405,12.963956
5653,Chemnitz-Harthau,50.776905,12.92416
270,Chemnitz-Hilbersdorf,50.861935,12.953879
4360,Chemnitz-Hilbersdorf,50.861935,12.953879
10383,Chemnitz-Reichenhain,50.79508,12.935877
12701,Chemnitz-Schönau,50.818096,12.8765
13488,Chemnitz-Schönau,50.818096,12.8765
3624,Chemnitz-Siegmar,50.81556,12.84251
670,Chemnitz-Siegmar,50.81556,12.84251
822,Chemnitz-Siegmar,50.81556,12.84251
11736,Chotyne,50.8376,14.87153
7910,Chrastava,50.81317,14.952283
6056,Chrastava-Andelska Hora,50.79678,14.957803
3708,Clarholz,51.898453,8.200835
7055,Clausnitz,50.75584,13.4986
12866,Cloppenburg,52.843994,8.055763
984,Cloppenburg,52.843994,8.055763
1988,Coburg,50.262928,10.957328
2977,Coburg,50.262928,10.957328
4309,Coburg,50.262928,10.957328
4386,Coburg,50.262928,10.957328
4536,Coburg,50.262928,10.957328
9428,Coburg Nord,50.271492,10.96487
1150,Coburg-Beiersdorf,50.286503,10.930699
2728,Coburg-Neuses,50.278,10.951277
11474,Cochem(Mosel),50.15309,7.166738
2370,Cochem(Mosel),50.15309,7.166738
388,Cochem(Mosel),50.15309,7.166738
8074,Cochem(Mosel),50.15309,7.166738
13578,Coesfeld Schulzentrum,51.951267,7.165836
12735,Coesfeld(Westf),51.939808,7.163687
12987,Coesfeld(Westf),51.939808,7.163687
5422,Coesfeld(Westf),51.939808,7.163687
6673,Coesfeld(Westf),51.939808,7.163687
10604,Collenberg,49.771122,9.329719
13083,Conegliano,45.884663,12.299103
3618,Contwig,49.24528,7.427916
6170,Coppenbrügge,52.119522,9.537588
5602,Coschen,52.019844,14.718167
7716,Coschen,52.019844,14.718167
3090,Cossebaude,51.085045,13.632124
4957,Cossebaude,51.085045,13.632124
10677,Coswig(Anh),51.888,12.457625
6147,Coswig(Anh),51.888,12.457625
12741,Coswig(b Dresden),51.12281,13.579414
7357,Coswig(b Dresden),51.12281,13.579414
8811,Coswig(b Dresden),51.12281,13.579414
9895,Coswig(b Dresden),51.12281,13.579414
11601,Cottbus Hbf,51.750957,14.324162
11945,Cottbus Hbf,51.750957,14.324162
13011,Cottbus Hbf,51.750957,14.324162
2796,Cottbus Hbf,51.750957,14.324162
3241,Cottbus Hbf,51.750957,14.324162
3959,Cottbus Hbf,51.750957,14.324162
5104,Cottbus Hbf,51.750957,14.324162
549,Cottbus Hbf,51.750957,14.324162
5863,Cottbus Hbf,51.750957,14.324162
9628,Cottbus Hbf,51.750957,14.324162
10125,Cottbus-Merzdorf,51.76891,14.366669
8550,Cottbus-Merzdorf,51.76891,14.366669
10575,Cottbus-Sandow,51.755177,14.353704
2638,Cottbus-Sandow,51.755177,14.353704
3937,Cottbus-Sandow,51.755177,14.353704
3793,Cottbus-Willmersdorf Nord,51.806736,14.376902
9189,Cottbus-Willmersdorf Nord,51.806736,14.376902
10991,Crailsheim,49.13787,10.064326
13068,Crailsheim,49.13787,10.064326
2530,Crailsheim,49.13787,10.064326
4716,Crailsheim,49.13787,10.064326
3729,Cranzahl,50.51125,12.993028
6179,Cranzahl,50.51125,12.993028
6699,Cranzahl,50.51125,12.993028
3316,Creidlitz,50.227173,10.982246
3191,Creußen(Oberfr),49.84947,11.628443
9200,Creußen(Oberfr),49.84947,11.628443
4576,Criesbach Keltenstraße,49.30192,9.633309
59,Crimmitschau,50.815067,12.392986
7444,Crimmitschau,50.815067,12.392986
12846,Crivitz,53.572517,11.645071
4836,Crivitz,53.572517,11.645071
5263,Crivitz,53.572517,11.645071
9857,Crossen Ort,50.974716,11.9819
12204,Crossen a d Elster,50.96573,11.984064
3491,Crossen a d Elster,50.96573,11.984064
8265,Cunnertswalde,51.162365,13.705502
6307,Cursdorf,50.571873,11.132022
3823,Cuxhaven,53.8609,8.703431
3910,Cuxhaven/Spieka Flugplatz,53.76731,8.637005
3474,Cölbe,50.84816,8.787365
4702,Cölbe,50.84816,8.787365
5287,Cölbe,50.84816,8.787365
7809,Cölbe,50.84816,8.787365
952,Cölbe,50.84816,8.787365
7553,Daaden,50.74047,7.963642
5333,Dabendorf,52.23733,13.43729
9611,Dabendorf,52.23733,13.43729
10560,Dachau Bahnhof,48.25465,11.44426
2389,Dachau Bahnhof,48.25465,11.44426
7833,Dachau Bahnhof,48.25465,11.44426
8740,Dachau Bahnhof,48.25465,11.44426
9588,Dachau Bahnhof,48.25465,11.44426
9964,Dachau Bahnhof,48.25465,11.44426
10159,Dachau Stadt,48.266663,11.439761
10963,Dachrieden,51.26952,10.442323
2947,Dachrieden,51.26952,10.442323
5189,Dachrieden,51.26952,10.442323
2475,Dachwig,51.072437,10.849686
12985,Dagebüll Kirche,54.73028,8.729485
7720,Dagebüll Mole,54.729908,8.690989
5276,Dahlbruch,50.970432,8.053456
9091,Dahlbruch,50.970432,8.053456
2582,Dahlen(Sachs),51.35097,12.984253
8394,Dahlen(Sachs),51.35097,12.984253
1059,Dahlenburg,53.169266,10.708804
12051,Dahlewitz,52.32662,13.419579
12530,Dahlewitz,52.32662,13.419579
12044,Dalheim,51.149143,6.178597
12278,Dallau,49.388077,9.18755
9818,Dallau,49.388077,9.18755
1401,Dallgow-Döberitz,52.543552,13.059037
9312,Dallgow-Döberitz,52.543552,13.059037
10513,Dannenberg Ost,53.104996,11.117734
2750,Dannenwalde(Gransee),53.079758,13.180801
751,Dannenwalde(Gransee),53.079758,13.180801
7762,Darching,47.870796,11.777253
7115,Darlingerode,51.84908,10.733037
10486,Darmstadt Hbf,49.8725,8.629636
11644,Darmstadt Hbf,49.8725,8.629636
13540,Darmstadt Hbf,49.8725,8.629636
13582,Darmstadt Hbf,49.8725,8.629636
2329,Darmstadt Hbf,49.8725,8.629636
2925,Darmstadt Hbf,49.8725,8.629636
3401,Darmstadt Hbf,49.8725,8.629636
644,Darmstadt Hbf,49.8725,8.629636
6605,Darmstadt Hbf,49.8725,8.629636
7656,Darmstadt Hbf,49.8725,8.629636
9914,Darmstadt Hbf,49.8725,8.629636
2092,Darmstadt Nord,49.892136,8.654311
4986,Darmstadt Nord,49.892136,8.654311
6361,Darmstadt Nord,49.892136,8.654311
5150,Darmstadt Ost,49.874744,8.673867
8623,Darmstadt Ost,49.874744,8.673867
10620,Darmstadt Süd,49.855427,8.636586
13155,Darmstadt Süd,49.855427,8.636586
1209,Darmstadt TU-Lichtwiese,49.861046,8.687527
5394,Darmstadt-Arheilgen,49.913414,8.645554
4968,Darmstadt-Eberstadt,49.813923,8.62582
7907,Darmstadt-Eberstadt,49.813923,8.62582
9670,Darmstadt-Eberstadt,49.813923,8.62582
10739,Darmstadt-Kranichstein,49.906826,8.679359
12173,Darmstadt-Wixhausen,49.930866,8.648051
11400,Dasing,48.386242,11.052165
9892,Dasing,48.386242,11.052165
11865,Dattenfeld(Sieg),50.80916,7.546252
4213,Dattenfeld(Sieg),50.80916,7.546252
1242,Dauenhof,53.85246,9.680659
4359,Dauenhof,53.85246,9.680659
6626,Dausenau,50.326866,7.758212
8040,Dausenau,50.326866,7.758212
13002,Davensberg,51.817944,7.598516
8199,Debica,50.054417,21.405565
1923,Decin hl.n.,50.773415,14.201247
7769,Decin-Certova voda,50.81666,14.221622
2629,Decin-Priper,50.78501,14.209291
4934,Decin-Prostredni Zleb,50.792957,14.23002
4066,Dedenhausen,52.432217,10.23873
446,Dedenhausen,52.432217,10.23873
2683,Dedensen-Gümmer,52.407047,9.521252
8680,Dedensen-Gümmer,52.407047,9.521252
12265,Dedinghausen,51.67236,8.398281
2093,Dedinghausen,51.67236,8.398281
785,Deezbüll,54.77697,8.818274
1034,Deggendorf Hbf,48.83944,12.949727
11704,Deggendorf Hbf,48.83944,12.949727
8620,Deggendorf Hbf,48.83944,12.949727
11985,Deidesheim,49.408348,8.192634
13425,Deidesheim,49.408348,8.192634
599,Deining(Oberpf),49.203995,11.515572
8684,Deining(Oberpf),49.203995,11.515572
1147,Deisenhofen,48.01954,11.583597
12257,Deisenhofen,48.01954,11.583597
6552,Deisenhofen,48.01954,11.583597
7020,Deisenhofen,48.01954,11.583597
7929,Deisenhofen,48.01954,11.583597
10505,Deißlingen Mitte,48.108376,8.611586
7574,Delitzsch ob Bf,51.519703,12.34639
9135,Delitzsch ob Bf,51.519703,12.34639
2282,Delitzsch unt Bf,51.525227,12.345218
9166,Delitzsch unt Bf,51.525227,12.345218
9950,Delitzsch unt Bf,51.525227,12.345218
13426,Dellfeld,49.227783,7.469169
911,Dellfeld,49.227783,7.469169
10956,Dellfeld Ort,49.23887,7.478162
11274,Delmenhorst,53.05279,8.629758
253,Delmenhorst,53.05279,8.629758
9090,Delmenhorst,53.05279,8.629758
1038,Demitz-Thumitz,51.14214,14.239622
3709,Demitz-Thumitz,51.14214,14.239622
104,Demker,52.518177,11.854733
10985,Demker,52.518177,11.854733
1284,Denzlingen,48.068626,7.881434
46,Denzlingen,48.068626,7.881434
5855,Denzlingen,48.068626,7.881434
8834,Denzlingen,48.068626,7.881434
12302,Denzlingen Bahnhof,48.069008,7.881764
1760,Denzlingen Bahnhof,48.069542,7.882061
3495,Dernbach(Westerw),50.457226,7.783693
7425,Dernbach(Westerw),50.457226,7.783693
4267,Derneburg(Han),52.09685,10.143719
7774,Derneburg(Han),52.09685,10.143719
11727,Desenzano del Garda/Sirmione,45.462666,10.536275
1162,Dessau Hbf,51.839867,12.234945
4448,Dessau Hbf,51.839867,12.234945
4679,Dessau Hbf,51.839867,12.234945
7678,Dessau Hbf,51.839867,12.234945
8989,Dessau Hbf,51.839867,12.234945
9713,Dessau Hbf,51.839867,12.234945
6823,Dessau Süd,51.802197,12.236455
9387,Dessau Süd,51.802197,12.236455
4800,Dessau-Alten,51.825542,12.19334
4926,Dessau-Mosigkau,51.814075,12.148546
6153,Dessau-Mosigkau,51.814075,12.148546
13240,Detmold,51.940746,8.872859
9966,Detmold,51.940746,8.872859
2103,Dettelbach Bahnhof,49.788147,10.090359
8936,Dettelbach Bahnhof,49.788147,10.090359
315,Dettenhausen,48.60658,9.093531
8624,Dettenhausen,48.60659,9.093518
1769,Dettingen(Main),50.042557,9.036807
2711,Dettingen(Main),50.042557,9.036807
4450,Dettingen(Teck),48.61641,9.454878
7232,Dettum,52.156876,10.660129
1070,Deuben(Zeitz),51.11053,12.068913
1906,Deuerling,49.04164,11.914918
996,Deuerling,49.04164,11.914918
13232,Deuten,51.713085,6.97079
4325,Deutzen,51.11443,12.419542
7192,Deutzen,51.11443,12.419542
4507,Diebach,50.12868,9.83766
10774,Dieburg,49.90369,8.839795
1650,Dieburg,49.90369,8.839795
3817,Dieburg,49.90369,8.839795
8727,Dieburg,49.90369,8.839795
12206,Diedorf(Schwab),48.35609,10.776823
7351,Diedorf(Schwab),48.35609,10.776823
13464,Diemeringen,48.940617,7.184837
2193,Dienheim,49.841354,8.35714
6351,Dienheim,49.841354,8.35714
4297,Diepholz,52.60477,8.380334
6177,Diepholz,52.60477,8.380334
228,Dieskau,51.450596,12.050897
4116,Dieskau,51.450596,12.050897
12249,Dietersheim,49.55688,10.543103
11977,Dietmannsried,47.812866,10.290481
12932,Dietmannsried,47.812866,10.290481
2070,Dietzelbach,47.85937,7.763382
12750,Dietzenbach Bahnhof,50.008064,8.785541
11555,Dietzenbach Mitte,50.017246,8.78899
1500,Dietzenbach Mitte,50.017246,8.78899
6486,Dietzenbach-Steinberg,50.02524,8.792627
7137,Dietzenbach-Steinberg,50.02524,8.792627
12326,Dietzhausen,50.599438,10.5969
12147,Diez,50.37013,8.01962
614,Diez,50.37013,8.01962
13090,Diez Ost,50.376045,8.038587
9002,Diez Ost,50.376045,8.038587
11448,Dießen,47.950817,11.10754
3831,Dießen,47.950817,11.10754
12357,Dillbrecht,50.801823,8.20377
7267,Dillbrecht,50.801823,8.20377
11927,Dillenburg,50.734882,8.294088
2168,Dillenburg,50.734882,8.294088
5565,Dillenburg,50.734882,8.294088
6339,Dillenburg,50.734882,8.294088
8477,Dillenburg,50.734882,8.294088
3266,Dillingen(Donau),48.581257,10.489167
5726,Dillingen(Donau),48.581257,10.489167
8208,Dillingen(Donau),48.581257,10.489167
13035,Dillingen(Saar),49.35271,6.72215
13357,Dillingen(Saar),49.35271,6.72215
1685,Dillingen(Saar),49.35271,6.72215
6262,Dingolfing,48.641605,12.48687
1504,Dinkelscherben,48.342224,10.588002
6634,Dinkelscherben,48.342224,10.588002
9798,Dinkelscherben,48.342224,10.588002
13547,Dinslaken,51.56746,6.73803
8659,Dinslaken,51.56746,6.73803
980,Dinslaken,51.56746,6.73803
8845,Dippoldiswalde,50.891094,13.664603
8983,Dirmingen,49.415386,7.012377
11720,Dissen-Bad Rothenfelde,52.11192,8.185298
6801,Distelhausen,49.598232,9.683508
10597,Ditfurt,51.83348,11.186728
13483,Dittersbach,50.926838,13.068842
354,Dittersdorf,50.75139,12.978615
8495,Dittigheim,49.607964,9.674912
3497,Ditzingen,48.823612,9.06705
6731,Ditzingen,48.823612,9.06705
12788,Doberlug-Kirchhain,51.620575,13.564241
52,Doberlug-Kirchhain,51.620575,13.564241
6291,Doberlug-Kirchhain,51.620575,13.564241
8511,Doberlug-Kirchhain,51.620575,13.564241
11436,Doberschütz,51.492237,12.745785
2866,Doberschütz,51.492237,12.745785
4203,Dodendorf,52.04895,11.613086
5225,Dodendorf,52.04895,11.613086
7308,Dodenhof,53.84441,9.939692
533,Doestrup(Soenderjylland) st,55.117485,8.807864
10437,Dogern,47.608887,8.167356
5284,Dogern,47.608887,8.167356
5368,Dohna(Sachs),50.96119,13.855565
1897,Dolhain-Gileppe,50.61637,5.936716
12981,Dollbergen,52.417152,10.181657
8037,Dollbergen,52.417152,10.181657
5250,Dollern,53.545425,9.55808
7936,Dollern,53.545425,9.55808
1868,Dollnstein,48.871426,11.079009
4313,Dollnstein,48.871426,11.079009
573,Dolni Poustevna,50.98343,14.28315
144,Dolni Zleb,50.84553,14.215599
804,Dolni Zleb zast.,50.837765,14.222765
9962,Domazlice,49.434692,12.944582
8782,Domazlice mesto,49.435677,12.924718
12929,Dombühl,49.25211,10.298523
3304,Dombühl,49.25211,10.298523
8020,Dombühl,49.25211,10.298523
9359,Domnitz(Saalkr),51.635223,11.839973
3308,Domsühl,53.48537,11.765869
10562,Donaueschingen,47.947784,8.498919
11800,Donaueschingen,47.947784,8.498919
267,Donaueschingen,47.947784,8.498919
4644,Donaueschingen,47.947784,8.498919
5305,Donaueschingen,47.947784,8.498919
4792,Donaueschingen Allmendshofen,47.94058,8.501819
11782,Donaueschingen Aufen,47.963356,8.47562
5791,Donaueschingen Aufen,47.963356,8.47562
1151,Donaueschingen Grüningen,47.98305,8.471824
3433,Donaueschingen Grüningen,47.98305,8.471824
4034,Donaueschingen Mitte/Siedlung,47.95254,8.488955
9142,Donaueschingen Mitte/Siedlung,47.95254,8.488955
1001,Donauwörth,48.714027,10.771443
1490,Donauwörth,48.714027,10.771443
1784,Donauwörth,48.714027,10.771443
5668,Donauwörth,48.714027,10.771443
6536,Donauwörth,48.714027,10.771443
7152,Donauwörth,48.714027,10.771443
8470,Donauwörth,48.714027,10.771443
11368,Dorf Mecklenburg,53.842934,11.471343
2689,Dorf Mecklenburg,53.842934,11.471343
9404,Dorfchemnitz,50.66579,12.839869
1552,Dorfen Bahnhof,48.267048,12.159686
5901,Dorfen Bahnhof,48.267048,12.159686
3592,Dorfmark,52.89914,9.771305
6215,Dorfmark,52.89914,9.771305
920,Dorfprozelten,49.779377,9.38216
3836,Dorheim(Wetterau),50.352703,8.79051
10138,Dormagen,51.099495,6.814837
1027,Dormagen,51.099495,6.814837
11626,Dormagen,51.099495,6.814837
5959,Dormagen,51.099495,6.814837
7824,Dormagen,51.099495,6.814837
3333,Dormagen Chempark,51.077045,6.838171
4851,Dormagen Chempark,51.077045,6.838171
10450,Dornburg(Saale),51.008614,11.675499
3245,Dornburg(Saale),51.008614,11.675499
10975,Dornstetten,47.980553,10.86957
1481,Dornstetten,48.469635,8.503214
2126,Dornstetten-Aach,48.4733,8.48291
10355,Dorsten,51.658276,6.9705
12016,Dorsten,51.658276,6.9705
1280,Dorsten,51.658276,6.9705
13348,Dorsten,51.658276,6.9705
6867,Dorsten,51.658276,6.9705
1283,Dortelweil,50.207504,8.751145
4896,Dortelweil,50.207504,8.751145
10187,Dortmund Hbf,51.517895,7.45929
10681,Dortmund Hbf,51.517895,7.45929
12825,Dortmund Hbf,51.517895,7.45929
13346,Dortmund Hbf,51.517895,7.45929
13552,Dortmund Hbf,51.517895,7.45929
1911,Dortmund Hbf,51.517895,7.45929
2603,Dortmund Hbf,51.517895,7.45929
4125,Dortmund Hbf,51.517895,7.45929
4665,Dortmund Hbf,51.517895,7.45929
5665,Dortmund Hbf,51.517895,7.45929
6566,Dortmund Hbf,51.517895,7.45929
6891,Dortmund Hbf,51.517895,7.45929
7636,Dortmund Hbf,51.517895,7.45929
9399,Dortmund Hbf,51.517895,7.45929
9435,Dortmund Hbf,51.517895,7.45929
2748,Dortmund Knappschaftskrankenhaus,51.51877,7.537458
932,Dortmund Knappschaftskrankenhaus,51.51877,7.537458
6385,Dortmund Möllerbrücke,51.507156,7.451706
6636,Dortmund Möllerbrücke,51.507156,7.451706
12308,Dortmund Signal Iduna Park,51.490726,7.457573
97,Dortmund Signal Iduna Park,51.490726,7.457573
10287,Dortmund Stadthaus,51.507828,7.468764
9298,Dortmund Stadthaus,51.507828,7.468764
4123,Dortmund Tierpark,51.47819,7.461995
13614,Dortmund Universität,51.49274,7.417708
6794,Dortmund Universität,51.49274,7.417708
4818,Dortmund West,51.50965,7.438938
9357,Dortmund West,51.50965,7.438938
10163,Dortmund-Aplerbeck,51.49015,7.553189
3588,Dortmund-Aplerbeck,51.49015,7.553189
11920,Dortmund-Aplerbeck Süd,51.484436,7.549982
8565,Dortmund-Aplerbeck Süd,51.484436,7.549982
10364,Dortmund-Asseln Mitte,51.52622,7.583839
3039,Dortmund-Asseln Mitte,51.52622,7.583839
417,Dortmund-Barop,51.476955,7.431298
7570,Dortmund-Barop,51.476955,7.431298
11007,Dortmund-Brackel,51.520756,7.550083
11273,Dortmund-Brackel,51.520756,7.550083
12553,Dortmund-Brackel,51.520756,7.550083
4807,Dortmund-Bövinghausen,51.519035,7.327477
11951,Dortmund-Derne,51.567715,7.528822
9214,Dortmund-Derne,51.567715,7.528822
13156,Dortmund-Dorstfeld,51.509377,7.424864
2078,Dortmund-Dorstfeld,51.509377,7.424864
4238,Dortmund-Dorstfeld,51.509377,7.424864
4736,Dortmund-Dorstfeld,51.509377,7.424864
617,Dortmund-Dorstfeld,51.509377,7.424864
8099,Dortmund-Dorstfeld,51.509377,7.424864
9252,Dortmund-Dorstfeld,51.509377,7.424864
12689,Dortmund-Dorstfeld Süd,51.500633,7.420017
7943,Dortmund-Dorstfeld Süd,51.500633,7.420017
2157,Dortmund-Germania,51.498123,7.363728
335,Dortmund-Germania,51.498123,7.363728
4789,Dortmund-Huckarde,51.532623,7.402353
4989,Dortmund-Huckarde,51.532623,7.402353
12945,Dortmund-Huckarde Nord,51.53367,7.415095
13714,Dortmund-Hörde,51.48778,7.500029
3064,Dortmund-Hörde,51.48778,7.500029
7569,Dortmund-Hörde,51.48778,7.500029
8374,Dortmund-Hörde,51.48778,7.500029
9779,Dortmund-Hörde,51.48778,7.500029
2963,Dortmund-Kirchderne,51.547073,7.510105
5948,Dortmund-Kirchderne,51.547073,7.510105
944,Dortmund-Kirchhörde,51.46424,7.457764
11202,Dortmund-Kley,51.489468,7.365374
3467,Dortmund-Kley,51.489468,7.365374
12387,Dortmund-Kruckel,51.458332,7.415529
5951,Dortmund-Kruckel,51.458332,7.415529
3898,Dortmund-Kurl,51.55698,7.585291
8188,Dortmund-Kurl,51.55698,7.585291
13275,Dortmund-Körne,51.51343,7.51537
8067,Dortmund-Körne,51.51343,7.51537
11893,Dortmund-Körne West,51.509937,7.502409
8007,Dortmund-Körne West,51.509937,7.502409
5563,Dortmund-Löttringhausen,51.451656,7.447228
10719,Dortmund-Lütgendortmund,51.500736,7.334177
447,Dortmund-Lütgendortmund Nord,51.508522,7.342401
5277,Dortmund-Marten,51.51446,7.374408
10083,Dortmund-Marten Süd,51.507984,7.387479
9842,Dortmund-Marten Süd,51.507984,7.387479
12093,Dortmund-Mengede,51.570347,7.374374
318,Dortmund-Mengede,51.570347,7.374374
9319,Dortmund-Mengede,51.570347,7.374374
9655,Dortmund-Mengede,51.570347,7.374374
12103,Dortmund-Nette/Oestrich,51.561497,7.377731
4797,Dortmund-Nette/Oestrich,51.561497,7.377731
6062,Dortmund-Oespel,51.488396,7.383811
763,Dortmund-Oespel,51.488396,7.383811
12889,Dortmund-Rahm,51.525726,7.395252
3635,Dortmund-Rahm,51.525726,7.395252
10250,Dortmund-Scharnhorst,51.538372,7.536564
4286,Dortmund-Scharnhorst,51.538372,7.536564
10072,Dortmund-Somborn,51.49601,7.350084
5756,Dortmund-Sölde,51.49546,7.589205
829,Dortmund-Sölde,51.49546,7.589205
13428,Dortmund-Westerfilde,51.548332,7.380213
1444,Dortmund-Westerfilde,51.548332,7.380213
3267,Dortmund-Wickede,51.53393,7.62466
7932,Dortmund-Wickede,51.53393,7.62466
38,Dortmund-Wickede West,51.529453,7.607215
8279,Dortmund-Wickede West,51.529453,7.607215
6482,Dortmund-Wischlingen,51.51929,7.412863
8239,Dortmund-Wischlingen,51.51929,7.412863
13455,Dorum(Weserm),53.688744,8.575801
3072,Dorum(Weserm),53.688744,8.575801
8775,Dossow(Prign),53.12121,12.520886
9029,Dossow(Prign),53.12121,12.520886
9226,Dottenheim,49.547497,10.522573
12258,Drahnsdorf,51.91539,13.58125
848,Drahnsdorf,51.91539,13.58125
12313,Drebkau,51.655083,14.22313
2521,Drebkau,51.655083,14.22313
10395,Dreieich-Buchschlag,50.022476,8.661151
2688,Dreieich-Buchschlag,50.022476,8.661151
9828,Dreieich-Buchschlag,50.022476,8.661151
6132,Dreieich-Dreieichenhain,49.998466,8.708693
801,Dreieich-Götzenhain,49.994217,8.7322
9689,Dreieich-Götzenhain,49.994217,8.7322
605,Dreieich-Offenthal,49.98185,8.74964
13053,Dreieich-Sprendlingen,50.0152,8.68874
5365,Dreieich-Sprendlingen,50.0152,8.68874
7664,Dreieich-Weibelfeld,50.007084,8.700922
3524,Dreikirchen,50.449863,7.958384
11467,Dreileben-Drackenstedt,52.143852,11.341559
3506,Dreileben-Drackenstedt,52.143852,11.341559
10869,Drensteinfurt,51.799156,7.733609
1826,Drensteinfurt,51.799156,7.733609
13577,Dresden Bischofsplatz,51.072334,13.746248
604,Dresden Bischofsplatz,51.072334,13.746248
632,Dresden Flughafen,51.124664,13.765993
8660,Dresden Flughafen,51.124664,13.765993
1600,Dresden Freiberger Straße,51.047993,13.719864
8628,Dresden Freiberger Straße,51.047993,13.719864
4140,Dresden Grenzstraße,51.1283,13.777737
4531,Dresden Grenzstraße,51.1283,13.777737
11487,Dresden Hbf,51.04056,13.732035
13101,Dresden Hbf,51.04056,13.732035
13392,Dresden Hbf,51.04056,13.732035
179,Dresden Hbf,51.04056,13.732035
240,Dresden Hbf,51.04056,13.732035
3600,Dresden Hbf,51.04056,13.732035
4067,Dresden Hbf,51.04056,13.732035
4822,Dresden Hbf,51.04056,13.732035
5464,Dresden Hbf,51.04056,13.732035
5881,Dresden Hbf,51.04056,13.732035
7079,Dresden Hbf,51.04056,13.732035
741,Dresden Hbf,51.04056,13.732035
9412,Dresden Hbf,51.04056,13.732035
4529,Dresden Industriegelände,51.087456,13.762772
4923,Dresden Industriegelände,51.087456,13.762772
13673,Dresden Mitte,51.056168,13.724109
4777,Dresden Mitte,51.056168,13.724109
6226,Dresden Mitte,51.056168,13.724109
7369,Dresden Mitte,51.056168,13.724109
11051,Dresden-Cotta,51.062157,13.683298
4411,Dresden-Cotta,51.062157,13.683298
10978,Dresden-Dobritz,51.011616,13.808477
3701,Dresden-Dobritz,51.011616,13.808477
5454,Dresden-Friedrichstadt,51.056034,13.708151
950,Dresden-Friedrichstadt,51.056034,13.708151
12252,Dresden-Kemnitz,51.073086,13.668919
4523,Dresden-Kemnitz,51.073086,13.668919
4197,Dresden-Klotzsche,51.114666,13.78911
9466,Dresden-Klotzsche,51.114666,13.78911
9700,Dresden-Klotzsche,51.114666,13.78911
1010,Dresden-Neustadt,51.0659,13.740701
1745,Dresden-Neustadt,51.0659,13.740701
3088,Dresden-Neustadt,51.0659,13.740701
4285,Dresden-Neustadt,51.0659,13.740701
5281,Dresden-Neustadt,51.0659,13.740701
8859,Dresden-Neustadt,51.0659,13.740701
9556,Dresden-Neustadt,51.0659,13.740701
9622,Dresden-Neustadt,51.0659,13.740701
2889,Dresden-Niedersedlitz,50.999653,13.828399
7919,Dresden-Niedersedlitz,50.999653,13.828399
11447,Dresden-Pieschen,51.08186,13.725527
12043,Dresden-Pieschen,51.08186,13.725527
6862,Dresden-Plauen,51.02963,13.70317
12059,Dresden-Reick,51.021317,13.790514
13681,Dresden-Reick,51.021317,13.790514
10207,Dresden-Stetzsch,51.08048,13.651865
8396,Dresden-Stetzsch,51.08048,13.651865
8271,Dresden-Strehlen,51.030678,13.761861
8980,Dresden-Strehlen,51.030678,13.761861
10998,Dresden-Trachau,51.089966,13.703878
8838,Dresden-Trachau,51.089966,13.703878
11637,Dresden-Zschachwitz,50.98965,13.84493
9016,Dresden-Zschachwitz,50.98965,13.84493
2376,Dreye,53.018425,8.871103
455,Dreye,53.018425,8.871103
3981,Drohndorf-Mehringen,51.72169,11.515648
2719,Ducherow,53.766136,13.796021
3905,Ducherow,53.766136,13.796021
7811,Ducherow,53.766136,13.796021
11706,Duckterath,50.984814,7.103496
3312,Dudweiler,49.277298,7.027351
8853,Dudweiler,49.277298,7.027351
10196,Duisburg Hbf,51.429787,6.775903
10220,Duisburg Hbf,51.429787,6.775903
10392,Duisburg Hbf,51.429787,6.775903
10676,Duisburg Hbf,51.429787,6.775903
12567,Duisburg Hbf,51.429787,6.775903
1779,Duisburg Hbf,51.429787,6.775903
1976,Duisburg Hbf,51.429787,6.775903
3443,Duisburg Hbf,51.429787,6.775903
5100,Duisburg Hbf,51.429787,6.775903
6717,Duisburg Hbf,51.429787,6.775903
7412,Duisburg Hbf,51.429787,6.775903
8658,Duisburg Hbf,51.429787,6.775903
9721,Duisburg Hbf,51.429787,6.775903
11878,Duisburg-Buchholz,51.38292,6.775406
13282,Duisburg-Buchholz,51.38292,6.775406
13709,Duisburg-Großenbaum,51.364773,6.77747
1842,Duisburg-Großenbaum,51.364773,6.77747
11283,Duisburg-Hochfeld Süd,51.409,6.753408
2191,Duisburg-Hochfeld Süd,51.409,6.753408
7696,Duisburg-Meiderich Ost,51.468857,6.800789
11506,Duisburg-Meiderich Süd,51.46883,6.780191
5511,Duisburg-Meiderich Süd,51.46883,6.780191
11789,Duisburg-Obermeiderich,51.468792,6.821232
12886,Duisburg-Rahm,51.346836,6.779924
9891,Duisburg-Rahm,51.346836,6.779924
4304,Duisburg-Ruhrort,51.45728,6.736015
11465,Duisburg-Schlenk,51.40178,6.773206
4641,Duisburg-Schlenk,51.40178,6.773206
10115,Durach,47.696453,10.343797
1325,Durlach Auer Str./Dr. Schwabe,49.000393,8.463693
7686,Durlach Auer Str./Dr. Schwabe,49.000515,8.463199
11561,Durlach Ellmendinger Straße,48.994087,8.458411
2676,Durlach Ellmendinger Straße,48.994274,8.458968
3066,Durlach Friedrichschule,48.99928,8.468921
6846,Durlach Friedrichschule,48.999336,8.468553
4152,Durlach Gritznerstraße,48.99918,8.463846
862,Durlach Gritznerstraße,48.999462,8.46416
5910,Durlach Karl-Weysser-Straße,48.998676,8.476719
3822,Durlach Killisfeldstraße,48.99717,8.461843
502,Durlach Killisfeldstraße,48.997562,8.462157
402,Durlach Ostmarkstraße,48.992264,8.453605
6499,Durlach Ostmarkstraße,48.99117,8.4525
12636,Durlach Schlesier Straße West,48.988415,8.452195
2985,Durlach Schlesier Straße West,48.988758,8.452213
10063,Durlach Schlossplatz,48.999138,8.474293
937,Durlach Schlossplatz,48.999126,8.473754
10710,Durlach Steiermärker Straße,48.98571,8.456219
3279,Durlach Steiermärker Straße,48.985916,8.455797
3276,Durlach Turmberg,48.999874,8.478515
9581,Durlach Turmberg,48.999897,8.478551
10861,Durlach Untermühlstraße,49.00207,8.455006
609,Durlach Untermühlstraße,49.001896,8.455887
11722,Durlach Zündhütle,48.98242,8.460944
12004,Durlach Zündhütle,48.982803,8.460109
10488,Dutenhofen(Wetzlar),50.56445,8.598905
12244,Dutenhofen(Wetzlar),50.56445,8.598905
13707,Dutenhofen(Wetzlar),50.56445,8.598905
3311,Dußlingen,48.452408,9.058444
6809,Dußlingen,48.452408,9.058444
10734,Dyreby st,55.700005,8.298163
